_id,Inspection ID,Facility ID,Facility Name,Facility Address,Facility Address 2,Facility Municipality Name,Facility City,Facility County,Facility State,Facility Postal Code,Facility Latitude,Facility Longitude,Venue Type,Inspection Date,Inspection End,Inspection Purpose,Inspection Passed,Inspection Number,Inspector Name,"Free Chlorine, Shallow","Free Chlorine, Deep","Combined Chlorine, Shallow","Combined Chlorine, Deep","Free Bromine, Shallow","Free Bromine, Deep","pH Value, Shallow","pH Value, Deep",Cyanuric Acid,Turnover,Enclosure,Main Drain Visible,Safety Equipment,Disinfectant Level,pH Balance,No Imminent Health Hazards,Abated Date
126944,195932,1473,SPRINGHILL SUITES BAKERY SQUARE POOL,134 BAKERY SQUARE  BOULEVARD,,Pittsburgh,PITTSBURGH,Allegheny County,PA,15206,40.45683112,-79.91493115,POOLS (INDOOR),2021-10-12T15:00:00,2021-10-15T15:30:00,INITIAL INSPECTION,f,1,ANDERSON IAN,,,,,,,,,,,t,t,t,t,t,t,10/21/2021
126947,196018,1098,MCKNIGHT HOTEL - HOT TUB,4575 MCKNIGHT ROAD,,Ross Township,PITTSBURGH,Allegheny County,PA,15237,40.50452415,-80.01036738,SPA/HOT TUB (INDOOR),2021-10-19T13:55:00,2021-10-20T14:10:00,FOLLOW UP INSPECTION,t,2,NOBBS SCOTT,,,0.4,,,,,,,40,t,t,f,t,t,t,10/26/2021
126948,196029,1384,WYNDHAM UNIVERSITY CENTER / POOL,100 LYTTON AVENUE,,Pittsburgh,PITTSBURGH,Allegheny County,PA,15213,40.44610062,-79.9546331,POOLS (INDOOR),2021-10-19T13:20:00,2021-10-20T14:00:00,INITIAL INSPECTION,t,1,ANDERSON IAN,5.6,,0,,,,7.4,,,70,t,t,f,t,t,t,6/9/2023
126949,196041,2366,KEYSTONE OAKS HIGH SCHOOL POOL,1000 KELTON AVENUE,Building & Grounds Dept,Mount Lebanon,PITTSBURGH,Allegheny County,PA,15216,40.38729325,-80.03052896,POOLS (SCHOOLS),2021-10-20T10:00:00,2021-10-21T10:40:00,INITIAL INSPECTION,t,1,WILSON ANGELA,3.2,3.2,0.2,0.2,,,7.4,7.4,,460,t,t,t,t,t,t,1/31/2022
126950,196136,1964,ATRIUM CONDO,307 S DITHRIDGE STREET,,Pittsburgh,PITTSBURGH,Allegheny County,PA,15213,40.44543484,-79.95005254,POOL (CONDO INDOOR),2021-10-21T10:00:00,2021-10-26T10:45:00,INITIAL INSPECTION,f,1,ANDERSON IAN,2.6,,0,,,,7.8,,,115,t,t,t,t,t,t,10/29/2021
126951,196146,5802,FAIRFIELD INN & SUITES BY MARRIOTT-MCCANDLESS POOL,901 PROVIDENCE BOULEVARD,,McCandless,PITTSBURGH,Allegheny County,PA,15237,40.57058542,-80.01890454,POOLS (INDOOR),2021-10-21T13:30:00,2021-10-26T14:00:00,INITIAL INSPECTION,t,1,NOBBS SCOTT,,,,,2.7,,7.4,,,70,t,t,f,t,t,t,11/23/2021
126953,196178,1399,HOME 2 SUITES POOL,8630 DUNCAN AVENUE,,McCandless,PITTSBURGH,Allegheny County,PA,15237,40.56167424,-80.02703422,POOLS (INDOOR),2021-10-25T14:45:00,2021-10-27T15:40:00,INITIAL INSPECTION,t,1,NOBBS SCOTT,1.6,,0.8,,,,7.4,,,60,t,t,f,t,t,t,10/29/2021
126954,196223,2379,HOLIDAY INN EXPRESS / PARKWAY CENTER INN - POOL,875 GREENTREE ROAD,,Green Tree,PITTSBURGH,Allegheny County,PA,15220,40.42452053,-80.04174563,POOLS (INDOOR),2021-10-28T15:25:00,2021-10-29T16:05:00,INITIAL INSPECTION,f,1,WILSON ANGELA,,,,,5.2,,7.6,,,70,t,t,t,t,t,t,10/29/2021
126955,196268,2028,LANGLEY K-8 POOL,2940 SHERADEN  BOULEVARD,,Pittsburgh,PITTSBURGH,Allegheny County,PA,15204,40.45453986,-80.05467276,POOLS (SCHOOLS),2021-10-28T10:25:00,2021-11-01T11:05:00,INITIAL INSPECTION,t,1,MANOWN MARYANN,5.5,,0,,,,7.2,,,175,t,t,f,t,t,t,11/8/2022
126956,196341,739,SPRINGHILL SUITES NORTH SHORE POOL,223 FEDERAL STREET,,Pittsburgh,PITTSBURGH,Allegheny County,PA,15212,40.44861362,-80.00470428,POOLS (INDOOR),2021-11-03T13:50:00,2021-11-04T14:45:00,INITIAL INSPECTION,t,1,NOBBS SCOTT,2.8,,0.4,,,,7.4,,,30,t,t,t,t,t,t,11/8/2021
126957,196392,2003,JEWISH COMMUNITY CENTER TRAINING POOL,5738 FORBES AVENUE,,Pittsburgh,PITTSBURGH,Allegheny County,PA,15217,40.43766873,-79.92390396,POOLS (INDOOR),2021-11-01T14:00:00,2021-11-05T14:30:00,INITIAL INSPECTION,f,1,MURPHY COLLEEN,5,5,0.2,0.2,,,7.4,7.4,,110,t,t,t,t,t,t,11/5/2021
126958,196399,1140,RESIDENCE INN POOL,574 W GENERAL ROBINSON STREET,,Pittsburgh,PITTSBURGH,Allegheny County,PA,15212,40.44799057,-80.00731418,POOLS (INDOOR),2021-11-04T12:35:00,2021-11-05T13:00:00,INITIAL INSPECTION,t,1,NOBBS SCOTT,1,,0.2,,,,7.4,,,110,t,t,f,t,t,t,12/9/2021
126959,196434,9538,SPRINGHILL SUITES MT LEBANON POOL,611 WASHINGTON ROAD,,Mount Lebanon,Pittsburgh,Allegheny County,PA,15228,40.38268795,-80.04370817,POOLS (INDOOR),2021-11-05T14:57:00,2021-11-08T15:03:00,FOLLOW UP INSPECTION,t,3,WILSON ANGELA,,,,,,,,,,,t,t,t,t,t,t,11/8/2021
126960,196446,1975,PGH ARSENAL 6-8 POOL,220 40TH STREET,,Pittsburgh,PITTSBURGH,Allegheny County,PA,15201,40.46810534,-79.96186209,POOLS (SCHOOLS),2021-11-08T14:10:00,2021-11-08T14:20:00,FOLLOW UP INSPECTION,t,2,WOLFE CURRIER,,,,,,,,,,,t,t,t,t,t,t,11/10/2021
126961,196562,5081,CMU AQUATIC CENTER-SPA,5000 FORBES AVENUE,,Pittsburgh,PITTSBURGH,Allegheny County,PA,15213,40.44421298,-79.9433991,SPA/HOT TUB (INDOOR),2021-11-10T03:15:00,2021-11-12T03:30:00,INITIAL INSPECTION,f,1,MURPHY COLLEEN,,,,,,,,,,,t,t,t,t,t,t,11/10/2021
126962,196604,1944,RIVERS CLUB MEN'S SPA,301 GRANT STREET, #411,Pittsburgh,PITTSBURGH,Allegheny County,PA,15219,40.43800708,-79.99861019,SPA/HOT TUB (INDOOR),2021-11-12T09:30:00,2021-11-15T09:45:00,INITIAL INSPECTION,t,1,MURPHY COLLEEN,,,,,4,,7.4,,,10,t,t,f,t,t,t,1/19/2022
126963,196706,469,THE VENUE POOL,625 STANWIX STREET,,Pittsburgh,PITTSBURGH,Allegheny County,PA,15222,40.44316988,-80.00484614,POOLS (OUTDOOR),2021-11-17T12:00:00,2021-11-19T12:30:00,FOLLOW UP INSPECTION,t,2,MURPHY COLLEEN,,,,,,,,,,,t,t,f,t,t,t,11/19/2021
126964,196744,6464,DRURY INN AIRPORT SPA,101 RIDGE ROAD,,Robinson Township,PITTSBURGH,Allegheny County,PA,15205,40.43752722,-80.15384177,SPA/HOT TUB (INDOOR),2021-11-17T11:10:00,2021-11-22T11:45:00,INITIAL INSPECTION,t,1,MANOWN MARYANN,,,,,10,,7.6,,,50,t,t,f,t,t,t,
126966,196782,5922,RESIDENCE INN OAKLAND UNIVERSITY PL POOL,3341 FORBES  AVENUE,,Pittsburgh,PITTSBURGH,Allegheny County,PA,15213,40.43819466,-79.9621171,POOLS (INDOOR),2021-11-23T14:25:00,2021-11-24T13:30:00,INITIAL INSPECTION,f,1,ANDERSON IAN,,,0.2,,4.2,,7.6,,,58,t,t,t,t,t,t,11/30/2021
126969,196020,1097,MCKNIGHT HOTEL - POOL,4575 MCKNIGHT ROAD,,Ross Township,PITTSBURGH,Allegheny County,PA,15237,40.50452415,-80.01036738,POOLS (INDOOR),2021-10-19T14:10:00,2021-10-20T14:35:00,FOLLOW UP INSPECTION,t,2,NOBBS SCOTT,,,0.8,,,,,,,65,t,t,f,t,t,t,10/29/2021
126970,196055,7695,STAYBRIDGE SUITES POOL,239 SUMMIT PARK DRIVE,,North Fayette Township,Pittsburgh,Allegheny County,PA,15275,40.4483239,-80.17842659,POOLS (INDOOR),2021-10-18T12:25:00,2021-10-21T13:30:00,INITIAL INSPECTION,t,1,MANOWN MARYANN,4.5,,0.5,,,,7.2,,,65,t,t,f,t,t,t,10/24/2022
126971,196113,7735,COMFORT INN SUITES - POOL,180 GAMMA  DRIVE,,O'Hara Township,Pittsburgh,Allegheny County,PA,15238,40.50184687,-79.86039245,POOLS (INDOOR),2021-10-21T10:00:00,2021-10-25T11:00:00,INITIAL INSPECTION,t,1,FREEMAN MICHELE,8.6,8.2,0,0,0,0,7.8,7.8,0,65,t,t,f,t,t,t,2/9/2023
126973,196276,2455,VIRGINIA MANSIONS CONDO POOL,2120 GREENTREE ROAD,,Scott Township,PITTSBURGH,Allegheny County,PA,15220,40.39232938,-80.07102594,POOL (CONDO INDOOR),2021-11-01T13:30:00,2021-11-02T13:44:00,FOLLOW UP INSPECTION,t,3,WILSON ANGELA,2.8,,0.2,,,,,,,,t,t,t,t,t,t,11/2/2021
126974,196397,2004,JEWISH COMMUNITY CENTER WOMEN'S SPA,5738 FORBES AVENUE,,Pittsburgh,PITTSBURGH,Allegheny County,PA,15217,40.43766873,-79.92390396,SPA/HOT TUB (INDOOR),2021-11-01T15:00:00,2021-11-05T15:30:00,INITIAL INSPECTION,f,1,MURPHY COLLEEN,1.2,,0,,,,7.4,,,85,t,t,t,t,t,t,11/5/2021
126975,196398,2005,JEWISH COMMUNITY CENTER MEN'S SPA,5738 FORBES AVENUE,,Pittsburgh,PITTSBURGH,Allegheny County,PA,15217,40.43766873,-79.92390396,SPA/HOT TUB (INDOOR),2021-11-01T15:30:00,2021-11-05T16:00:00,INITIAL INSPECTION,f,1,MURPHY COLLEEN,2.6,,0,,,,7.6,,,104,t,t,t,t,t,t,11/5/2021
126977,196483,1962,W PA SCHOOL FOR BLIND CHILDREN POOL,201 N BELLEFIELD  AVENUE,,Pittsburgh,PITTSBURGH,Allegheny County,PA,15213,40.44921669,-79.95379361,POOLS (SCHOOLS),2021-11-08T13:20:00,2021-11-09T14:00:00,INITIAL INSPECTION,f,1,ANDERSON IAN,3.6,,0.2,,,,7.4,,,100,t,t,t,t,t,t,11/15/2021
126978,196606,5682,DRURY PLAZA HOTEL SPA-PITTSBURGH,745 GRANT STREET,,Pittsburgh,PITTSBURGH,Allegheny County,PA,15219,40.4429879,-79.99487458,SPA/HOT TUB (INDOOR),2021-11-12T10:45:00,2021-11-15T11:00:00,INITIAL INSPECTION,f,1,MURPHY COLLEEN,,,,,6,,7.5,,,55,t,t,t,t,t,t,11/15/2021
126979,196607,1093,DOUBLETREE HOTEL PITTSBURGH CITY CENTER POOL,1 BIGELOW SQUARE,,Pittsburgh,PITTSBURGH,Allegheny County,PA,15219,40.4405328,-79.99402279,POOLS (INDOOR),2021-11-12T11:30:00,2021-11-15T12:00:00,INITIAL INSPECTION,f,1,MURPHY COLLEEN,1,,0,,,,7.4,,,100,t,t,t,t,t,t,11/15/2021
126980,196708,1409,WYNDHAM GRAND PITTSBURGH - POOL,600 COMMONWEALTH PLACE,,Pittsburgh,PITTSBURGH,Allegheny County,PA,15222,40.44174089,-80.00640882,POOLS (INDOOR),2021-11-17T01:00:00,2021-11-19T01:30:00,INITIAL INSPECTION,f,1,MURPHY COLLEEN,,,,,6,,7.8,,,90,t,t,t,t,t,t,11/19/2021
126981,196745,6463,DRURY INN AIRPORT POOL,101 RIDGE ROAD,,Robinson Township,PITTSBURGH,Allegheny County,PA,15205,40.43752722,-80.15384177,POOLS (INDOOR),2021-11-17T11:45:00,2021-11-22T12:20:00,INITIAL INSPECTION,t,1,MANOWN MARYANN,,,,,10,,7.4,,,55,t,t,f,t,t,t,
126988,197025,747,COMFORT INN PITTSBURGH EAST SPA,699 RODI ROAD,,Wilkins Township,PITTSBURGH,Allegheny County,PA,15235,40.44329575,-79.82655393,SPA/HOT TUB (INDOOR),2021-12-01T14:35:00,2021-12-06T15:00:00,INITIAL INSPECTION,t,1,ANDERSON IAN,2.2,,0.4,,,,7.6,,,45,t,t,t,t,t,t,12/13/2021
126989,197128,1399,HOME 2 SUITES POOL,8630 DUNCAN AVENUE,,McCandless,PITTSBURGH,Allegheny County,PA,15237,40.56167424,-80.02703422,POOLS (INDOOR),2021-12-08T15:00:00,2021-12-09T15:40:00,INITIAL INSPECTION,t,1,NOBBS SCOTT,2,,1,,,,7.4,,,75,t,t,f,t,t,t,2/15/2022
126993,197229,1212,RESIDENCE INN BY MARRIOTT POOL,3455 WILLIAM PENN HIGHWAY,,Wilkins Township,PITTSBURGH,Allegheny County,PA,15235,40.43124954,-79.81150365,POOLS (INDOOR),2021-12-14T14:00:00,2021-12-15T15:15:00,INITIAL INSPECTION,t,1,ANDERSON IAN,3.6,,0.2,,,,7.4,,,115,t,t,f,t,t,t,5/10/2023
126996,197653,1410,WYNDHAM GRAND PITTSBURGH - SPA,600 COMMONWEALTH PLACE,,Pittsburgh,PITTSBURGH,Allegheny County,PA,15222,40.44174089,-80.00640882,SPA/HOT TUB (INDOOR),2021-12-28T11:00:00,2022-01-14T11:15:00,INITIAL INSPECTION,f,1,MURPHY COLLEEN,,,,,,,,,,,t,t,t,t,t,t,12/28/2021
126997,197656,1944,RIVERS CLUB MEN'S SPA,301 GRANT STREET, #411,Pittsburgh,PITTSBURGH,Allegheny County,PA,15219,40.43800708,-79.99861019,SPA/HOT TUB (INDOOR),2021-12-28T12:00:00,2022-01-14T12:30:00,INITIAL INSPECTION,f,1,MURPHY COLLEEN,,,,,,,,,,,t,t,t,t,t,t,12/28/2021
126999,197717,69,DUQUESNE UNIVERSITY / INDOOR POOL,1345 VICROY STREET,,Pittsburgh,PITTSBURGH,Allegheny County,PA,15282,,,POOLS (SCHOOLS),2022-01-19T14:15:00,2022-01-19T14:30:00,FOLLOW UP INSPECTION,t,2,MURPHY COLLEEN,,,,,,,,,,,t,t,f,t,t,t,1/19/2022
127000,197739,4943,EMBASSY SUITES POOL,535 SMITHFIELD STREET,,Pittsburgh,PITTSBURGH,Allegheny County,PA,15222,40.44140245,-79.9980334,POOLS (INDOOR),2022-01-20T12:30:00,2022-01-20T12:45:00,FOLLOW UP INSPECTION,t,2,MURPHY COLLEEN,,,,,,,,,,,t,t,f,t,t,t,1/20/2022
127001,197866,2366,KEYSTONE OAKS HIGH SCHOOL POOL,1000 KELTON AVENUE,Building & Grounds Dept,Mount Lebanon,PITTSBURGH,Allegheny County,PA,15216,40.38729325,-80.03052896,POOLS (SCHOOLS),2022-01-28T10:50:00,2022-01-28T11:20:00,FOLLOW UP INSPECTION,t,2,WOLFE CURRIER,3.4,3.2,0.2,0.2,,,7.4,7.4,,475,t,t,t,t,t,t,1/31/2022
127002,198000,1399,HOME 2 SUITES POOL,8630 DUNCAN AVENUE,,McCandless,PITTSBURGH,Allegheny County,PA,15237,40.56167424,-80.02703422,POOLS (INDOOR),2022-02-01T15:00:00,2022-02-09T15:30:00,FOLLOW UP INSPECTION,t,3,NOBBS SCOTT,,,,0.2,,,,,,,t,t,t,t,t,t,2/15/2022
127003,198046,1013,FAIRFIELD INN NEVILLE POOL,5850 GRAND AVENUE,,Neville Township,PITTSBURGH,Allegheny County,PA,15225,40.5137302,-80.13321022,POOLS (INDOOR),2022-02-10T13:15:00,2022-02-11T13:50:00,INITIAL INSPECTION,t,1,LAURIA D. ANTHONY,3,3,3,3,,,8,8,,100,t,t,f,t,t,t,3/23/2022
127005,198293,1007,LA FITNESS PLEASANT HILLS POOL,601 CLAIRTON BOULEVARD,,Pleasant Hills,PITTSBURGH,Allegheny County,PA,15236,40.33221382,-79.94402761,POOLS (INDOOR),2022-02-28T15:00:00,2022-03-01T16:00:00,INITIAL INSPECTION,t,1,CONLEY FAON,4.2,4.2,0.2,0.2,,,7.2,7.2,,0,t,t,t,t,t,t,5/10/2023
127006,198313,9097,COMFORT INN & SUITES NORTH SHORE - POOL,820 E OHIO STREET,,Pittsburgh,Pittsburgh,Allegheny County,PA,15212,40.45450327,-79.99626917,POOLS (INDOOR),2022-03-02T09:00:00,2022-03-02T10:30:00,INITIAL INSPECTION,t,1,NOBBS SCOTT,2.6,,0.6,,,,7.4,,,75,t,t,t,t,t,t,5/3/2022
127007,198329,2156,PLUM SENIOR HIGH SCHOOL POOL,900 ELICKER ROAD,,Plum,PITTSBURGH,Allegheny County,PA,15239,40.50742041,-79.76665136,POOLS (SCHOOLS),2022-03-03T09:00:00,2022-03-03T09:10:00,FOLLOW UP INSPECTION,t,2,WILSON ANGELA,,,,,,,,,,400,t,t,t,t,t,t,3/3/2022
127009,198405,9097,COMFORT INN & SUITES NORTH SHORE - POOL,820 E OHIO STREET,,Pittsburgh,Pittsburgh,Allegheny County,PA,15212,40.45450327,-79.99626917,POOLS (INDOOR),2022-03-02T10:00:00,2022-03-08T10:19:00,INITIAL INSPECTION,f,1,NOBBS SCOTT,2.6,,0.6,,,,7.4,,,75,t,t,t,t,t,t,3/9/2022
127011,198413,2141,OLYMPIC SWIM CLUB POOL,517 TWIN OAK DRIVE,,Penn Hills,PITTSBURGH,Allegheny County,PA,15235,40.47898714,-79.7904494,POOLS (INDOOR),2022-03-08T11:00:00,2022-03-08T11:15:00,FOLLOW UP INSPECTION,t,4,WILSON ANGELA,,,,,,,7.6,,,375,t,t,t,t,f,t,3/9/2022
127013,198457,1960,PITTSBURGH FRICK SCIENCE & TECHNOLOGY POOL,107 THACKERAY STREET,,Pittsburgh,PITTSBURGH,Allegheny County,PA,15213,40.44351037,-79.95768498,POOLS (INDOOR),2022-03-09T09:00:00,2022-03-11T09:50:00,INITIAL INSPECTION,t,1,WILSON ANGELA,2.2,,0,,,,7.4,,,,t,t,f,t,t,t,8/3/2023
127014,195942,9097,COMFORT INN & SUITES NORTH SHORE - POOL,820 E OHIO STREET,,Pittsburgh,Pittsburgh,Allegheny County,PA,15212,40.45450327,-79.99626917,POOLS (INDOOR),2021-10-15T09:10:00,2021-10-15T09:20:00,FOLLOW UP INSPECTION,t,4,NOBBS SCOTT,,,,0,,,,,,,t,t,t,t,t,t,10/18/2021
127017,196160,5142,COMFORT INN & SUITES PITTSBURGH-POOL,1100 BANKSVILLE ROAD,,Pittsburgh,PITTSBURGH,Allegheny County,PA,15216,40.4199184,-80.03027139,POOLS (INDOOR),2021-10-20T10:10:00,2021-10-26T10:40:00,FOLLOW UP INSPECTION,t,2,MANOWN MARYANN,6.5,,0.5,,,,7.2,,,,t,t,f,t,f,t,11/24/2021
127018,196238,2025,PGH BRASHEAR HIGH SCHOOL - POOL,590 CRANE AVENUE,,Pittsburgh,PITTSBURGH,Allegheny County,PA,15216,40.41809034,-80.01822688,POOLS (INDOOR),2021-10-26T09:35:00,2021-10-29T10:35:00,INITIAL INSPECTION,f,1,MANOWN MARYANN,4.5,4,0,0,,,7.4,7.4,,675,t,t,t,t,t,t,11/1/2021
127019,196275,2456,VIRGINIA MANSIONS CONDO SPA,2120 GREENTREE ROAD,,Scott Township,PITTSBURGH,Allegheny County,PA,15220,40.39232938,-80.07102594,SPA/HOT TUB (INDOOR),2021-11-01T13:45:00,2021-11-02T13:58:00,FOLLOW UP INSPECTION,t,3,WILSON ANGELA,,,,,,,,,,,t,t,t,t,t,t,12/15/2021
127021,196339,1456,MT LEBANON SR HIGH POOL,155 COCHRAN ROAD,,Mount Lebanon,PITTSBURGH,Allegheny County,PA,15228,40.37631927,-80.05088011,POOLS (SCHOOLS),2021-11-02T12:40:00,2021-11-04T13:00:00,INITIAL INSPECTION,f,1,WILSON ANGELA,1.6,1.8,0.2,0,,,7.2,7.4,,880,t,t,t,t,t,t,11/4/2021
127022,196396,2002,JEWISH COMMUNITY CENTER LAP POOL,5738 FORBES AVENUE,,Pittsburgh,PITTSBURGH,Allegheny County,PA,15217,40.43766873,-79.92390396,POOLS (INDOOR),2021-11-01T14:30:00,2021-11-05T15:00:00,INITIAL INSPECTION,f,1,MURPHY COLLEEN,4.8,4.8,0.2,0.2,,,7.4,7.4,,300,t,t,t,t,t,t,11/5/2021
127023,196556,678,CHATHAM UNIVERSITY  SPA, WOODLAND ROAD,,Pittsburgh,PITTSBURGH,Allegheny County,PA,15232,,,SPA/HOT TUB (INDOOR),2021-11-10T09:30:00,2021-11-12T09:45:00,INITIAL INSPECTION,f,1,MURPHY COLLEEN,,,,,,,,,,,t,t,t,t,t,t,11/10/2021
127024,196558,677,CHATHAM UNIVERSITY POOL,1 WOODLAND ROAD,,Pittsburgh,PITTSBURGH,Allegheny County,PA,15232,40.44893906,-79.92439675,POOLS (INDOOR),2021-11-10T09:45:00,2021-11-12T10:15:00,INITIAL INSPECTION,t,1,MURPHY COLLEEN,2.8,,0,,,,7.5,,,90,t,t,t,t,t,t,1/19/2022
127025,196561,2494,CMU / AQUATIC CENTER DIVING POOL,5000 FORBES AVENUE,,Pittsburgh,PITTSBURGH,Allegheny County,PA,15217,,,POOLS (SCHOOLS),2021-11-10T02:45:00,2021-11-12T03:15:00,INITIAL INSPECTION,f,1,MURPHY COLLEEN,2,,0,,,,7.5,,,840,t,t,t,t,t,t,11/15/2021
127027,196603,1943,RIVERS CLUB / INDOOR POOL,301 GRANT STREET,Ste 411,Pittsburgh,PITTSBURGH,Allegheny County,PA,15219,40.43800708,-79.99861019,POOLS (INDOOR),2021-11-12T09:00:00,2021-11-15T09:30:00,INITIAL INSPECTION,t,1,MURPHY COLLEEN,4,,0,,,,7.6,,,90,t,t,f,t,t,t,1/19/2022
127028,196605,5683,DRURY PLAZA HOTEL POOL-PITTSBURGH,745 GRANT STREET,,Pittsburgh,PITTSBURGH,Allegheny County,PA,15219,40.4429879,-79.99487458,POOLS (INDOOR),2021-11-12T10:15:00,2021-11-15T10:45:00,INITIAL INSPECTION,f,1,MURPHY COLLEEN,,,0,,6,,7.6,,,55,t,t,t,t,t,t,11/15/2021
127029,196608,69,DUQUESNE UNIVERSITY / INDOOR POOL,1345 VICROY STREET,,Pittsburgh,PITTSBURGH,Allegheny County,PA,15282,,,POOLS (SCHOOLS),2021-11-12T01:15:00,2021-11-15T01:45:00,INITIAL INSPECTION,t,1,MURPHY COLLEEN,2.4,,0,,,,7.5,,,325,t,t,f,t,t,t,1/19/2022
127031,196692,2037,PGH ALLEGHENY K - 5 & 6 - 8 POOL,810 ARCH STREET,,Pittsburgh,PITTSBURGH,Allegheny County,PA,15212,40.45323875,-80.00865869,POOLS (SCHOOLS),2021-11-18T13:35:00,2021-11-19T14:00:00,INITIAL INSPECTION,t,1,NOBBS SCOTT,3.4,3.4,0.4,0.2,,,7.4,7.4,,225,t,t,f,t,t,t,11/23/2021
127032,196738,5802,FAIRFIELD INN & SUITES BY MARRIOTT-MCCANDLESS POOL,901 PROVIDENCE BOULEVARD,,McCandless,PITTSBURGH,Allegheny County,PA,15237,40.57058542,-80.01890454,POOLS (INDOOR),2021-11-19T15:30:00,2021-11-22T15:40:00,FOLLOW UP INSPECTION,t,2,NOBBS SCOTT,,,,,,,,,,,t,t,f,t,t,t,11/23/2021
127033,196849,2512,HOSANNA HOUSE POOL,807 WALLACE AVENUE,,Wilkinsburg,PITTSBURGH,Allegheny County,PA,15221,40.44371621,-79.88056849,POOLS (INDOOR),2021-11-29T08:45:00,2021-11-29T09:15:00,INITIAL INSPECTION,f,1,MURPHY COLLEEN,,,,,,,,,,,t,t,t,t,t,t,11/30/2021
127034,196866,2509,IMPERIAL HOUSE CONDO SPA,5600 MUNHALL ROAD,,Pittsburgh,PITTSBURGH,Allegheny County,PA,15217,40.43356647,-79.92644132,SPA/HOT TUB (INDOOR),2021-11-29T10:15:00,2021-11-29T10:30:00,INITIAL INSPECTION,f,1,MURPHY COLLEEN,,,,,4,,7.4,,,60,t,t,t,t,t,t,11/30/2021
127035,197091,1140,RESIDENCE INN POOL,574 W GENERAL ROBINSON STREET,,Pittsburgh,PITTSBURGH,Allegheny County,PA,15212,40.44799057,-80.00731418,POOLS (INDOOR),2021-12-07T14:30:00,2021-12-08T14:45:00,FOLLOW UP INSPECTION,t,2,NOBBS SCOTT,,,,,,,,,,,t,t,f,t,t,t,12/9/2021
127036,197134,1963,DITHRIDGE HOUSE - POOL,220 N DITHRIDGE STREET,,Pittsburgh,PITTSBURGH,Allegheny County,PA,15213,40.44984052,-79.95200454,POOL (CONDO INDOOR),2021-12-08T11:20:00,2021-12-09T12:15:00,INITIAL INSPECTION,t,1,ANDERSON IAN,,,,,5.6,,7.4,,,,t,t,t,t,t,t,12/13/2021
127037,197212,2456,VIRGINIA MANSIONS CONDO SPA,2120 GREENTREE ROAD,,Scott Township,PITTSBURGH,Allegheny County,PA,15220,40.39232938,-80.07102594,SPA/HOT TUB (INDOOR),2021-12-13T10:35:00,2021-12-14T10:37:00,FOLLOW UP INSPECTION,t,4,WILSON ANGELA,,,,,,,,,,,t,t,t,t,t,t,12/15/2021
127038,197454,10018,DOUBLETREE BY HILTON GREEN TREE IN/OUT DOOR POOL,500 MANSFIELD AVENUE,,Green Tree,Pittsburgh,Allegheny County,PA,15205,40.41845909,-80.05961806,POOLS (INDOOR),2021-12-29T10:20:00,2021-12-30T10:28:00,FOLLOW UP INSPECTION,t,3,WILSON ANGELA,,,,,,,,,,,t,t,f,t,t,t,1/4/2022
127039,197455,10019,DOUBLETREE BY HILTON GREEN TREE SPA,500 MANSFIELD AVENUE,,Green Tree,Pittsburgh,Allegheny County,PA,15205,40.41845909,-80.05961806,SPA/HOT TUB (INDOOR),2021-12-29T10:15:00,2021-12-30T10:20:00,FOLLOW UP INSPECTION,t,3,WILSON ANGELA,,,,,,,,,,,t,t,f,t,t,t,1/4/2022
127040,197532,1399,HOME 2 SUITES POOL,8630 DUNCAN AVENUE,,McCandless,PITTSBURGH,Allegheny County,PA,15237,40.56167424,-80.02703422,POOLS (INDOOR),2022-01-05T15:00:00,2022-01-06T15:30:00,FOLLOW UP INSPECTION,t,2,NOBBS SCOTT,,,0.6,,,,,,,,t,t,f,t,t,t,2/15/2022
127043,197714,677,CHATHAM UNIVERSITY POOL,1 WOODLAND ROAD,,Pittsburgh,PITTSBURGH,Allegheny County,PA,15232,40.44893906,-79.92439675,POOLS (INDOOR),2022-01-19T13:15:00,2022-01-19T13:30:00,FOLLOW UP INSPECTION,t,2,MURPHY COLLEEN,,,,,,,,,,,t,t,t,t,t,t,1/19/2022
127045,197865,2366,KEYSTONE OAKS HIGH SCHOOL POOL,1000 KELTON AVENUE,Building & Grounds Dept,Mount Lebanon,PITTSBURGH,Allegheny County,PA,15216,40.38729325,-80.03052896,POOLS (SCHOOLS),2022-01-28T10:50:00,2022-01-28T11:20:00,INITIAL INSPECTION,f,1,WOLFE CURRIER,3.4,3.2,0.2,0.2,,,7.4,7.4,,475,t,t,t,t,t,t,1/28/2022
127046,198052,2512,HOSANNA HOUSE POOL,807 WALLACE AVENUE,,Wilkinsburg,PITTSBURGH,Allegheny County,PA,15221,40.44371621,-79.88056849,POOLS (INDOOR),2022-02-02T09:30:00,2022-02-11T10:00:00,INITIAL INSPECTION,f,1,MURPHY COLLEEN,3,,0,,,,7.6,,,160,t,t,t,t,t,t,2/2/2022
127051,196226,2035,YMCA / ALLEGHENY POOL,600 W NORTH AVENUE,,Pittsburgh,PITTSBURGH,Allegheny County,PA,15212,40.45456719,-80.01283356,POOLS (INDOOR),2021-10-28T13:45:00,2021-10-29T14:35:00,INITIAL INSPECTION,t,1,NOBBS SCOTT,3,2.6,0.4,0.4,,,7.6,7.6,,130,t,t,t,t,t,t,11/8/2021
127052,196340,4401,HOLIDAY INN EXPRESS & SUITES / NORTH SHORE POOL,228 FEDERAL  STREET,,Pittsburgh,PITTSBURGH,Allegheny County,PA,15212,40.4487848,-80.00420813,POOLS (INDOOR),2021-11-03T13:45:00,2021-11-04T14:35:00,INITIAL INSPECTION,f,1,NOBBS SCOTT,,,,,7.65,,7.4,,,65,t,t,t,t,t,t,11/8/2021
127053,196507,915,SARAH HEINZ HOUSE POOL,1 HEINZ STREET,,Pittsburgh,PITTSBURGH,Allegheny County,PA,15212,40.45495568,-79.99279847,POOLS (INDOOR),2021-11-05T13:30:00,2021-11-10T14:20:00,INITIAL INSPECTION,f,1,NOBBS SCOTT,3.8,4.2,0.2,0.2,,,7.4,7.4,,330,t,t,t,t,t,t,11/15/2021
127055,196560,2493,CMU / AQUATIC CENTER LAP POOL,5000 FORBES AVENUE,,Pittsburgh,PITTSBURGH,Allegheny County,PA,15217,,,POOLS (SCHOOLS),2021-11-10T02:15:00,2021-11-12T02:45:00,INITIAL INSPECTION,f,1,MURPHY COLLEEN,3.5,,0,,,,7.4,,,600,t,t,t,t,t,t,11/15/2021
127056,196701,4943,EMBASSY SUITES POOL,535 SMITHFIELD STREET,,Pittsburgh,PITTSBURGH,Allegheny County,PA,15222,40.44140245,-79.9980334,POOLS (INDOOR),2021-11-17T10:30:00,2021-11-19T11:00:00,INITIAL INSPECTION,t,1,MURPHY COLLEEN,3,,0,,,,7.2,,,35,t,t,f,t,t,t,1/20/2022
127057,196709,1410,WYNDHAM GRAND PITTSBURGH - SPA,600 COMMONWEALTH PLACE,,Pittsburgh,PITTSBURGH,Allegheny County,PA,15222,40.44174089,-80.00640882,SPA/HOT TUB (INDOOR),2021-11-17T01:30:00,2021-11-19T02:00:00,INITIAL INSPECTION,f,1,MURPHY COLLEEN,,,,,6,,7.2,,,35,t,t,t,t,t,t,11/19/2021
127059,196771,5142,COMFORT INN & SUITES PITTSBURGH-POOL,1100 BANKSVILLE ROAD,,Pittsburgh,PITTSBURGH,Allegheny County,PA,15216,40.4199184,-80.03027139,POOLS (INDOOR),2021-11-22T10:10:00,2021-11-23T10:20:00,FOLLOW UP INSPECTION,t,3,MANOWN MARYANN,3.5,,0.2,,,,,,,,t,t,t,t,t,t,11/24/2021
127060,197021,748,COMFORT INN PITTSBURGH EAST POOL,699 RODI ROAD,,Wilkins Township,PITTSBURGH,Allegheny County,PA,15235,40.44329575,-79.82655393,POOLS (INDOOR),2021-12-01T14:00:00,2021-12-06T14:35:00,INITIAL INSPECTION,t,1,ANDERSON IAN,4,4.4,0.4,0.4,,,7.2,7.2,,145,t,t,t,t,t,t,12/13/2021
127064,198267,994,CLUB PITTSBURGH SPA,1139 PENN AVENUE,4th Floor,Pittsburgh,PITTSBURGH,Allegheny County,PA,15222,40.44563954,-79.99284405,SPA/HOT TUB (INDOOR),2022-02-15T11:00:00,2022-02-28T11:45:00,INITIAL INSPECTION,f,1,MURPHY COLLEEN,,,,,10,,7.2,,,50,t,t,t,t,t,t,2/28/2022
127065,198338,2203,NORTHGATE JR / SR HIGH SCHOOL - POOL,589 UNION AVENUE,,Bellevue,PITTSBURGH,Allegheny County,PA,15202,40.50646749,-80.05699088,POOLS (SCHOOLS),2022-03-03T12:00:00,2022-03-04T13:00:00,INITIAL INSPECTION,f,1,LAURIA D. ANTHONY,2,2,0,0,,,7.4,7.4,,700,t,t,t,t,t,t,3/4/2022
127066,198415,2141,OLYMPIC SWIM CLUB POOL,517 TWIN OAK DRIVE,,Penn Hills,PITTSBURGH,Allegheny County,PA,15235,40.47898714,-79.7904494,POOLS (INDOOR),2022-03-08T11:16:00,2022-03-08T11:50:00,INITIAL INSPECTION,t,1,WILSON ANGELA,1.6,1.4,0.4,0.4,,,7.6,7.6,,375,t,t,f,t,t,t,4/26/2022
127067,198438,1333,BARRACK OBAMA ACADEMY 6-12 POOL,515 N HIGHLAND AVENUE,,Pittsburgh,PITTSBURGH,Allegheny County,PA,15206,40.4670706,-79.92259876,POOLS (SCHOOLS),2022-03-09T12:00:00,2022-03-10T14:30:00,INITIAL INSPECTION,f,1,FREEMAN MICHELE,1.6,1.6,0.2,0.2,,,7.6,7.6,,430,t,t,t,t,t,t,3/9/2022
127069,198625,1298,YMCA THELMA LOVETTE INDOOR POOL,2114 CENTRE AVENUE,,Pittsburgh,PITTSBURGH,Allegheny County,PA,15219,40.44454421,-79.97785943,POOLS (INDOOR),2022-03-22T11:00:00,2022-03-23T12:30:00,INITIAL INSPECTION,t,1,FREEMAN MICHELE,9.6,9.6,0,0,0,0,7.6,7.6,0,250,t,t,f,t,t,t,6/16/2022
127071,198721,9097,COMFORT INN & SUITES NORTH SHORE - POOL,820 E OHIO STREET,,Pittsburgh,Pittsburgh,Allegheny County,PA,15212,40.45450327,-79.99626917,POOLS (INDOOR),2022-03-29T15:00:00,2022-03-30T14:00:00,FOLLOW UP INSPECTION,t,2,NOBBS SCOTT,,,0.4,,,,,,,,t,t,f,t,t,t,5/3/2022
127077,197154,1995,PGH COLFAX K - 8 POOL,2332 BEECHWOOD BOULEVARD,,Pittsburgh,PITTSBURGH,Allegheny County,PA,15217,40.43306483,-79.91536574,POOLS (SCHOOLS),2021-12-10T09:30:00,2021-12-10T10:15:00,INITIAL INSPECTION,f,1,MURPHY COLLEEN,2.4,,0,,,,7.6,,,110,t,t,t,t,t,t,12/10/2021
127078,197155,1999,PGH  ALLDERDICE HS - POOL,2409 SHADY AVENUE,,Pittsburgh,PITTSBURGH,Allegheny County,PA,15217,40.42942382,-79.91937331,POOLS (SCHOOLS),2021-12-10T10:30:00,2021-12-10T11:15:00,INITIAL INSPECTION,f,1,MURPHY COLLEEN,3.5,,0,,,,7.6,,,520,t,t,t,t,t,t,12/10/2021
127079,197204,10018,DOUBLETREE BY HILTON GREEN TREE IN/OUT DOOR POOL,500 MANSFIELD AVENUE,,Green Tree,Pittsburgh,Allegheny County,PA,15205,40.41845909,-80.05961806,POOLS (INDOOR),2021-12-13T09:00:00,2021-12-14T09:14:00,FOLLOW UP INSPECTION,t,2,WILSON ANGELA,,,1.6,,,,,,,80,t,t,f,t,t,t,1/4/2022
127080,197210,2042,PGH PERRY HIGH SCHOOL  POOL,3875 PERRYSVILLE AVENUE,,Pittsburgh,PITTSBURGH,Allegheny County,PA,15214,40.48916814,-80.01903641,POOLS (INDOOR),2021-12-14T09:35:00,2021-12-14T10:00:00,INITIAL INSPECTION,t,1,NOBBS SCOTT,1.8,1.8,0,0,,,7.4,7.4,,600,t,t,t,t,t,t,12/15/2021
127081,197222,2057,WOODLAND HILLS HIGH POOL,2550 GREENSBURG PIKE,,Churchill,PITTSBURGH,Allegheny County,PA,15221,40.43635351,-79.85631199,POOLS (SCHOOLS),2021-12-13T08:45:00,2021-12-14T09:15:00,INITIAL INSPECTION,f,1,MURPHY COLLEEN,3.5,,0,,,,7.4,,,400,t,t,t,t,t,t,12/15/2021
127082,197271,994,CLUB PITTSBURGH SPA,1139 PENN AVENUE,4th Floor,Pittsburgh,PITTSBURGH,Allegheny County,PA,15222,40.44563954,-79.99284405,SPA/HOT TUB (INDOOR),2021-12-16T15:00:00,2021-12-16T15:30:00,INITIAL INSPECTION,f,1,MURPHY COLLEEN,,,,,15,,7.2,,,45,t,t,t,t,t,t,12/17/2021
127085,198790,2141,OLYMPIC SWIM CLUB POOL,517 TWIN OAK DRIVE,,Penn Hills,PITTSBURGH,Allegheny County,PA,15235,40.47898714,-79.7904494,POOLS (INDOOR),2022-04-01T15:00:00,2022-04-04T15:20:00,FOLLOW UP INSPECTION,t,2,WILSON ANGELA,,,,,,,,,,,t,t,f,t,t,t,4/26/2022
127087,199042,10577,THE DISTRICT - POOL,1759 Waterfront PLACE,,Pittsburgh,Pittsburgh,Allegheny County,PA,15222,40.45159947,-79.98735184,POOLS (OUTDOOR),2022-04-18T14:01:00,2022-04-20T15:30:00,INITIAL INSPECTION,t,1,ROBINSON LAWRENCE,3.5,,0,,,,8,,,91,t,t,f,t,t,t,7/26/2022
127089,199082,679,KINGSLEY COMMUNITY CENTER POOL,6435 FRANKSTOWN  AVENUE,,Pittsburgh,PITTSBURGH,Allegheny County,PA,15206,40.46146029,-79.91539965,POOLS (INDOOR),2022-04-21T10:51:00,2022-04-21T11:30:00,INITIAL INSPECTION,t,1,WILSON ANGELA,1.6,1,0.6,0.2,,,7.8,7.4,,,t,t,f,t,t,t,5/19/2022
127090,199130,2002,JEWISH COMMUNITY CENTER LAP POOL,5738 FORBES AVENUE,,Pittsburgh,PITTSBURGH,Allegheny County,PA,15217,40.43766873,-79.92390396,POOLS (INDOOR),2022-04-25T12:45:00,2022-04-26T13:15:00,INITIAL INSPECTION,f,1,MURPHY COLLEEN,2.6,,0,,,,7.4,,,300,t,t,t,t,t,t,4/26/2022
127091,199159,9097,COMFORT INN & SUITES NORTH SHORE - POOL,820 E OHIO STREET,,Pittsburgh,Pittsburgh,Allegheny County,PA,15212,40.45450327,-79.99626917,POOLS (INDOOR),2022-04-27T15:30:00,2022-04-28T16:00:00,FOLLOW UP INSPECTION,t,3,NOBBS SCOTT,,,0.6,,,,,,,,t,t,f,t,t,t,5/3/2022
127092,199292,1970,TREES HALL POOL,1970 ALLEQUIPPA STREET,,Pittsburgh,PITTSBURGH,Allegheny County,PA,15260,,,POOLS (SCHOOLS),2022-04-25T12:00:00,2022-05-05T14:00:00,INITIAL INSPECTION,t,1,FREEMAN MICHELE,9.8,9.8,1,1,0,0,7.6,7.6,<50,,t,t,f,t,t,t,7/7/2022
127095,199510,2305,CLUB JULIAN POOL,101 CORBETT COURT,,Ross Township,PITTSBURGH,Allegheny County,PA,15237,40.54776197,-80.0195882,POOLS (INDOOR),2022-05-13T15:00:00,2022-05-19T15:15:00,FOLLOW UP INSPECTION,t,2,NOBBS SCOTT,,,1.6,1.4,,,,,,,t,t,t,t,t,t,6/29/2022
127096,199515,1494,BAKERY LIVING 2.0 POOL,6480 LIVING PLACE,,Pittsburgh,PITTSBURGH,Allegheny County,PA,15206,40.45615667,-79.91692854,POOLS (INDOOR),2022-05-19T14:10:00,2022-05-20T15:15:00,INITIAL INSPECTION,f,1,ANDERSON IAN,,,,,8,,7.4,,,70,t,t,t,t,t,t,5/24/2022
127097,199580,7735,COMFORT INN SUITES - POOL,180 GAMMA  DRIVE,,O'Hara Township,Pittsburgh,Allegheny County,PA,15238,40.50184687,-79.86039245,POOLS (INDOOR),2022-05-24T10:00:00,2022-05-24T11:00:00,FOLLOW UP INSPECTION,t,2,FREEMAN MICHELE,5.2,5.4,0.2,0.2,0,0,7.8,7.8,0,70,t,t,f,t,t,t,
127099,199627,2283,FOX CHAPEL MEWS #1 POOL,300 FOX CHAPEL ROAD,,O'Hara Township,PITTSBURGH,Allegheny County,PA,15238,40.49247313,-79.87978979,POOL (CONDO INDOOR),2022-05-26T09:00:00,2022-05-27T10:00:00,INITIAL INSPECTION,f,1,FREEMAN MICHELE,1.4,1.4,0.2,0.2,0,0,7.2,7.2,,50,t,t,t,t,t,t,
127104,199748,2212,ETNA POOL, PINE STREET,,Etna,PITTSBURGH,Allegheny County,PA,15223,,,POOLS (OUTDOOR),2022-06-06T11:00:00,2022-06-07T12:30:00,INITIAL INSPECTION,t,1,FREEMAN MICHELE,1.8,1.6,0.2,0.2,0,0,7.2,7.2,<50,450,t,t,f,t,t,t,8/18/2022
127106,199882,8796,GLASSHOUSE OF PITTSBURGH POOL ,160 E STATION SQUARE  DRIVE,,Pittsburgh,Pittsburgh,Allegheny County,PA,15219,40.43236118,-80.00198027,POOLS (OUTDOOR),2022-06-13T13:45:00,2022-06-14T14:30:00,INITIAL INSPECTION,t,1,CONLEY FAON,8.8,8.6,0,0,,,8,8,,,t,f,t,t,f,f,6/20/2022
127108,199950,8796,GLASSHOUSE OF PITTSBURGH POOL ,160 E STATION SQUARE  DRIVE,,Pittsburgh,Pittsburgh,Allegheny County,PA,15219,40.43236118,-80.00198027,POOLS (OUTDOOR),2022-06-15T11:00:00,2022-06-16T12:45:00,FOLLOW UP INSPECTION,t,2,CONLEY FAON,4.6,4.6,0,0,,,7.4,7.4,,90,t,t,t,t,t,t,6/20/2022
127109,196793,1298,YMCA THELMA LOVETTE INDOOR POOL,2114 CENTRE AVENUE,,Pittsburgh,PITTSBURGH,Allegheny County,PA,15219,40.44454421,-79.97785943,POOLS (INDOOR),2021-11-16T14:00:00,2021-11-24T15:00:00,INITIAL INSPECTION,t,1,FREEMAN MICHELE,2,2,0.2,0.2,0,0,7.6,7.6,0,250,t,t,f,t,t,t,11/30/2021
127110,196865,1996,IMPERIAL HOUSE CONDO POOL,5600 MUNHALL ROAD,,Pittsburgh,PITTSBURGH,Allegheny County,PA,15217,40.43356647,-79.92644132,POOL (CONDO INDOOR),2021-11-29T09:30:00,2021-11-29T10:15:00,INITIAL INSPECTION,f,1,MURPHY COLLEEN,5,,0.2,,,,7.4,,,70,t,t,t,t,t,t,11/30/2021
127112,196970,1077,BRENTMOOR AT PENN CENTER POOL,1100 PENN CENTER BOULEVARD,,Wilkins Township,PITTSBURGH,Allegheny County,PA,15235,40.4248348,-79.81347266,POOLS (INDOOR),2021-11-30T14:15:00,2021-12-03T15:30:00,INITIAL INSPECTION,t,1,ANDERSON IAN,1.2,,0,,,,7.8,,,,t,t,t,t,t,t,12/9/2021
127114,197208,10019,DOUBLETREE BY HILTON GREEN TREE SPA,500 MANSFIELD AVENUE,,Green Tree,Pittsburgh,Allegheny County,PA,15205,40.41845909,-80.05961806,SPA/HOT TUB (INDOOR),2021-12-13T09:15:00,2021-12-14T09:29:00,FOLLOW UP INSPECTION,t,2,WILSON ANGELA,,,2,,,,,,,,t,t,f,t,t,t,1/4/2022
127115,197269,4646,HOMEWOOD SUITES POOL,1410 SMALLMAN STREET,,Pittsburgh,PITTSBURGH,Allegheny County,PA,15222,40.44813044,-79.98975901,POOLS (INDOOR),2021-12-16T14:30:00,2021-12-16T15:00:00,INITIAL INSPECTION,f,1,MURPHY COLLEEN,3,,0,,,,7.2,,,60,t,t,t,t,t,t,12/17/2021
127118,197715,1944,RIVERS CLUB MEN'S SPA,301 GRANT STREET, #411,Pittsburgh,PITTSBURGH,Allegheny County,PA,15219,40.43800708,-79.99861019,SPA/HOT TUB (INDOOR),2022-01-19T13:45:00,2022-01-19T14:00:00,FOLLOW UP INSPECTION,t,2,MURPHY COLLEEN,,,,,,,,,,,t,t,f,t,t,t,1/19/2022
127121,198591,1111,UNIVERSITY PREP AT MILLIONES POOL,3117 CENTRE AVENUE,,Pittsburgh,PITTSBURGH,Allegheny County,PA,15219,40.44980864,-79.96243461,POOLS (SCHOOLS),2022-03-17T13:00:00,2022-03-21T15:00:00,INITIAL INSPECTION,f,1,FREEMAN MICHELE,3.6,3.6,0,0,0,0,7.4,7.4,,190,t,t,t,t,t,t,3/24/2022
127122,198613,1013,FAIRFIELD INN NEVILLE POOL,5850 GRAND AVENUE,,Neville Township,PITTSBURGH,Allegheny County,PA,15225,40.5137302,-80.13321022,POOLS (INDOOR),2022-03-21T15:21:00,,FOLLOW UP INSPECTION,t,2,LAURIA D. ANTHONY,2.2,2.2,0,0,,,7.2,7.2,,100,t,t,f,t,t,t,3/23/2022
127126,199043,1414,HYATT PLACE POOL,260 N SHORE DRIVE,,Pittsburgh,PITTSBURGH,Allegheny County,PA,15212,40.44665593,-80.00914723,POOLS (INDOOR),2022-04-18T14:45:00,2022-04-20T16:00:00,INITIAL INSPECTION,t,1,NOBBS SCOTT,,,,,13.95,,7.4,,,50,t,t,f,t,t,t,8/18/2022
127127,199264,2134,JOHN H LINTON MIDDLE SCHOOL POOL,250 ASTER STREET,,Penn Hills,PITTSBURGH,Allegheny County,PA,15235,40.48164712,-79.81262325,POOLS (SCHOOLS),2022-05-04T09:11:00,2022-05-04T09:15:00,FOLLOW UP INSPECTION,t,2,WILSON ANGELA,,,,,,,,,,,t,t,f,t,t,t,5/4/2022
127128,199511,2307,CLUB JULIAN SPA,101 CORBETT COURT,,Ross Township,PITTSBURGH,Allegheny County,PA,15237,40.54776197,-80.0195882,SPA/HOT TUB (INDOOR),2022-05-13T15:15:00,2022-05-19T15:30:00,FOLLOW UP INSPECTION,t,2,NOBBS SCOTT,,,0.4,,,,,,,,t,t,t,t,t,t,5/26/2022
127129,199516,1414,HYATT PLACE POOL,260 N SHORE DRIVE,,Pittsburgh,PITTSBURGH,Allegheny County,PA,15212,40.44665593,-80.00914723,POOLS (INDOOR),2022-05-19T15:00:00,2022-05-20T15:45:00,FOLLOW UP INSPECTION,t,2,NOBBS SCOTT,,,,,18,,,,,,t,t,f,t,t,t,8/18/2022
127131,198053,2512,HOSANNA HOUSE POOL,807 WALLACE AVENUE,,Wilkinsburg,PITTSBURGH,Allegheny County,PA,15221,40.44371621,-79.88056849,POOLS (INDOOR),2022-02-02T09:30:00,2022-02-11T10:00:00,INITIAL INSPECTION,f,1,MURPHY COLLEEN,3,,0,,,,7.6,,,75,t,t,t,t,t,t,2/14/2022
127133,198115,463,PGH  WESTINGHOUSE HIGH SCHOOL  POOL,1101 N MURTLAND AVENUE,,Pittsburgh,PITTSBURGH,Allegheny County,PA,15208,40.46100758,-79.90117323,POOLS (INDOOR),2022-02-15T09:00:00,2022-02-16T09:29:00,INITIAL INSPECTION,t,1,WILSON ANGELA,2.4,3,0.2,0.2,,,7.4,7.4,,580,t,t,f,t,t,t,2/17/2022
127135,198149,2521,PGH OLIVER HS POOL,2323 BRIGHTON ROAD,,Pittsburgh,PITTSBURGH,Allegheny County,PA,15212,40.46443339,-80.02450103,POOLS (INDOOR),2022-02-17T14:00:00,2022-02-18T14:30:00,INITIAL INSPECTION,f,1,LAURIA D. ANTHONY,2.5,,2.5,,,,7.4,7.4,,418,t,t,t,t,t,t,2/22/2022
127138,198637,1393,HYATT HOUSE SOUTHSIDE WORKS - POOL,2795 S WATER STREET,,Pittsburgh,PITTSBURGH,Allegheny County,PA,15203,40.42828512,-79.96392123,POOLS (INDOOR),2022-03-23T11:15:00,2022-03-23T11:45:00,INITIAL INSPECTION,t,1,WOLFE CURRIER,1.8,,0.2,,,,7.2,,,250,t,t,t,t,t,t,5/23/2023
127143,199623,1470,SHERATON STATION SQ HOTEL POOL,300 W STATION SQUARE DRIVE,,Pittsburgh,PITTSBURGH,Allegheny County,PA,15219,40.43498703,-80.00699072,POOLS (INDOOR),2022-05-24T11:25:00,2022-05-26T12:00:00,INITIAL INSPECTION,t,1,MANOWN MARYANN,6.6,6.6,0.8,0.8,,,7.2,7.2,,,t,t,f,t,t,t,
127146,199753,7341,HYATT REGENCY PGH INT'L AIRPORT / POOL,1111 AIRPORT  BOULEVARD,Po Box  12420,Findlay Township,Pittsburgh,Allegheny County,PA,15231,40.49635703,-80.25991025,POOLS (INDOOR),2022-06-07T09:20:00,2022-06-07T09:45:00,FOLLOW UP INSPECTION,t,2,MANOWN MARYANN,,,,,10,,,,,55,t,t,f,t,t,f,6/8/2022
127148,199787,2302,WOODBRIDGE CONDO POOL,100 CLUBHOUSE LANE,,Ross Township,PITTSBURGH,Allegheny County,PA,15237,40.51533813,-79.99036775,POOL (CONDO OUTDOOR),2022-06-07T09:00:00,2022-06-08T09:45:00,FOLLOW UP INSPECTION,t,5,NOBBS SCOTT,1,1,0,0,,,7.4,7.2,<50,250,t,t,t,t,t,t,6/22/2022
127153,199911,748,COMFORT INN PITTSBURGH EAST POOL,699 RODI ROAD,,Wilkins Township,PITTSBURGH,Allegheny County,PA,15235,40.44329575,-79.82655393,POOLS (INDOOR),2022-06-14T11:30:00,2022-06-15T11:40:00,FOLLOW UP INSPECTION,t,2,WILSON ANGELA,,,,,,,,,,,t,t,f,t,t,t,12/14/2022
127154,198967,2307,CLUB JULIAN SPA,101 CORBETT COURT,,Ross Township,PITTSBURGH,Allegheny County,PA,15237,40.54776197,-80.0195882,SPA/HOT TUB (INDOOR),2022-04-14T09:20:00,2022-04-15T09:40:00,INITIAL INSPECTION,t,1,NOBBS SCOTT,3,,0.6,,,,7.4,,,80,t,t,t,t,t,t,5/26/2022
127155,198989,1098,MCKNIGHT HOTEL - HOT TUB,4575 MCKNIGHT ROAD,,Ross Township,PITTSBURGH,Allegheny County,PA,15237,40.50452415,-80.01036738,SPA/HOT TUB (INDOOR),2022-04-13T09:00:00,2022-04-18T09:45:00,INITIAL INSPECTION,t,1,NOBBS SCOTT,2.2,,0.2,,,,7,,,,t,t,t,t,f,t,4/26/2022
127159,199081,1349,LA FITNESS #40333 ,6425 PENN AVENUE,,Pittsburgh,PITTSBURGH,Allegheny County,PA,15206,40.45736561,-79.9170012,POOLS (INDOOR),2022-04-21T11:10:00,2022-04-21T11:14:00,INITIAL INSPECTION,f,1,WILSON ANGELA,,,,,,,,,,,t,t,t,t,t,t,4/22/2022
127160,199087,1964,ATRIUM CONDO,307 S DITHRIDGE STREET,,Pittsburgh,PITTSBURGH,Allegheny County,PA,15213,40.44543484,-79.95005254,POOL (CONDO INDOOR),2022-04-21T14:00:00,2022-04-21T14:20:00,INITIAL INSPECTION,t,1,WILSON ANGELA,2.8,,0.6,,,,7.4,,,85,t,t,f,t,t,t,2/6/2023
127161,199131,2003,JEWISH COMMUNITY CENTER TRAINING POOL,5738 FORBES AVENUE,,Pittsburgh,PITTSBURGH,Allegheny County,PA,15217,40.43766873,-79.92390396,POOLS (INDOOR),2022-04-25T13:15:00,2022-04-26T13:30:00,INITIAL INSPECTION,f,1,MURPHY COLLEEN,2.6,,0,,,,7.4,,,100,t,t,t,t,t,t,4/26/2022
127162,199133,2004,JEWISH COMMUNITY CENTER WOMEN'S SPA,5738 FORBES AVENUE,,Pittsburgh,PITTSBURGH,Allegheny County,PA,15217,40.43766873,-79.92390396,SPA/HOT TUB (INDOOR),2022-04-25T13:30:00,2022-04-26T13:45:00,INITIAL INSPECTION,f,1,MURPHY COLLEEN,3,,0,,,,7.6,,,60,t,t,t,t,t,t,4/26/2022
127166,199931,1298,YMCA THELMA LOVETTE INDOOR POOL,2114 CENTRE AVENUE,,Pittsburgh,PITTSBURGH,Allegheny County,PA,15219,40.44454421,-79.97785943,POOLS (INDOOR),2022-06-14T14:00:00,2022-06-15T15:00:00,FOLLOW UP INSPECTION,t,2,FREEMAN MICHELE,2.8,2.8,0.2,0.2,0,0,7.4,7.4,,,t,t,f,t,t,t,6/16/2022
127168,199945,2244,ACCORD PARK POOL / AVONWORTH POOL,498 CAMP HORN ROAD,,Kilbuck Township,PITTSBURGH,Allegheny County,PA,15237,,,POOLS (OUTDOOR),2022-06-15T13:15:00,2022-06-16T14:15:00,INITIAL INSPECTION,f,1,LAURIA D. ANTHONY,1.5,1.5,1.5,1.5,,,7.6,7.6,,450,t,t,t,t,t,t,6/23/2022
127169,199947,8796,GLASSHOUSE OF PITTSBURGH POOL ,160 E STATION SQUARE  DRIVE,,Pittsburgh,Pittsburgh,Allegheny County,PA,15219,40.43236118,-80.00198027,POOLS (OUTDOOR),2022-06-15T11:00:00,2022-06-16T12:45:00,FOLLOW UP INSPECTION,t,2,CONLEY FAON,4.6,4.6,0,0,,,7.4,7.4,,90,t,f,t,t,f,f,6/20/2022
127170,199948,4184,HYATT HOUSE / SHADYSIDE POOL,5335 BAUM  BOULEVARD,,Pittsburgh,PITTSBURGH,Allegheny County,PA,15224,40.4569195,-79.93910387,POOLS (INDOOR),2022-06-13T11:00:00,2022-06-16T11:47:00,INITIAL INSPECTION,f,1,TIJANI ISSA,3,3,0.2,0.2,,,7.4,7.3,,55,t,t,t,t,t,t,6/16/2022
127175,200028,2257,MCCANDLESS SWIM CLUB POOL,8300 THOMPSON RUN  ROAD,,McCandless,PITTSBURGH,Allegheny County,PA,15237,,,POOLS (OUTDOOR),2022-06-17T13:15:00,2022-06-20T13:40:00,INITIAL INSPECTION,f,1,NOBBS SCOTT,2.8,3.8,0.2,0,,,7.2,7.2,<30,500,t,t,t,t,t,t,6/21/2022
127176,200040,553,AVALON POOL,708 NEW BRIGHTON ROAD,,Avalon,PITTSBURGH,Allegheny County,PA,15202,40.5046898,-80.06480715,POOLS (OUTDOOR),2022-06-20T14:00:00,2022-06-21T15:00:00,INITIAL INSPECTION,t,1,LAURIA D. ANTHONY,3,3,3,3,,,7.6,7.6,,571,t,t,f,t,t,t,7/18/2022
127177,197652,1409,WYNDHAM GRAND PITTSBURGH - POOL,600 COMMONWEALTH PLACE,,Pittsburgh,PITTSBURGH,Allegheny County,PA,15222,40.44174089,-80.00640882,POOLS (INDOOR),2021-12-28T11:30:00,2022-01-14T11:45:00,INITIAL INSPECTION,f,1,MURPHY COLLEEN,,,,,,,,,,,t,t,t,t,t,t,12/28/2021
127178,197716,1943,RIVERS CLUB / INDOOR POOL,301 GRANT STREET,Ste 411,Pittsburgh,PITTSBURGH,Allegheny County,PA,15219,40.43800708,-79.99861019,POOLS (INDOOR),2022-01-19T14:00:00,2022-01-19T14:15:00,FOLLOW UP INSPECTION,t,2,MURPHY COLLEEN,,,,,,,,,,,t,t,f,t,t,t,1/19/2022
127179,197995,807,PGH BAXTER STUDENT ACHIEVEMENT CENTER POOL,925 BRUSHTON AVENUE,,Pittsburgh,PITTSBURGH,Allegheny County,PA,15208,40.45636212,-79.88839509,POOLS (SCHOOLS),2022-02-09T09:00:00,2022-02-09T09:29:00,INITIAL INSPECTION,t,1,WILSON ANGELA,2.2,2.2,0,0,,,7.6,7.6,,170,t,t,t,t,t,t,8/25/2023
127180,198078,2156,PLUM SENIOR HIGH SCHOOL POOL,900 ELICKER ROAD,,Plum,PITTSBURGH,Allegheny County,PA,15239,40.50742041,-79.76665136,POOLS (SCHOOLS),2022-02-10T09:00:00,2022-02-14T09:40:00,INITIAL INSPECTION,t,1,WILSON ANGELA,4.6,4.2,0.2,0.2,,,7.4,7.4,,110,t,t,t,t,t,t,3/3/2022
127183,198187,2134,JOHN H LINTON MIDDLE SCHOOL POOL,250 ASTER STREET,,Penn Hills,PITTSBURGH,Allegheny County,PA,15235,40.48164712,-79.81262325,POOLS (SCHOOLS),2022-02-22T09:00:00,2022-02-22T09:52:00,INITIAL INSPECTION,t,1,WILSON ANGELA,2.2,2.4,0,0,,,7.4,7.4,,729.92,t,t,f,t,t,t,5/4/2022
127185,198294,1008,LA FITNESS PLEASANT HILLS SPA,601 CLAIRTON BOULEVARD,,Pleasant Hills,PITTSBURGH,Allegheny County,PA,15236,40.33221382,-79.94402761,SPA/HOT TUB (INDOOR),2022-02-28T12:30:00,2022-03-01T13:30:00,INITIAL INSPECTION,t,1,CONLEY FAON,7.8,7.8,0.8,0.8,,,7.2,7.2,,90,t,t,t,t,t,t,3/2/2022
127187,198514,2353,BRENTWOOD MIDDLE/HIGH SCHOOL POOL,3601 BROWNSVILLE ROAD,,Brentwood,PITTSBURGH,Allegheny County,PA,15227,40.37435979,-79.97410948,POOLS (SCHOOLS),2022-03-14T13:20:00,2022-03-15T14:45:00,INITIAL INSPECTION,f,1,CONLEY FAON,3,3,0,0,,,7.2,7.2,,575,t,t,t,t,t,t,3/16/2022
127188,198719,1098,MCKNIGHT HOTEL - HOT TUB,4575 MCKNIGHT ROAD,,Ross Township,PITTSBURGH,Allegheny County,PA,15237,40.50452415,-80.01036738,SPA/HOT TUB (INDOOR),2022-03-21T09:00:00,2022-03-30T09:30:00,INITIAL INSPECTION,t,1,NOBBS SCOTT,2,,0.6,,,,7.4,,,,t,t,t,t,t,t,4/1/2022
127189,198784,9577,GOLDFISH SWIM SCHOOL,1115 FREEPORT ROAD,,O'Hara Township,Pittsburgh,Allegheny County,PA,15238,40.48825181,-79.88192116,POOLS (INDOOR),2022-03-30T15:00:00,2022-04-04T16:00:00,INITIAL INSPECTION,f,1,FREEMAN MICHELE,2.6,2.6,0.4,0.4,0,0,7.6,7.6,0,241,t,t,t,t,t,t,4/4/2022
127190,198822,323,BELLEFIELD HALL POOL,315 S BELLEFIELD STREET,,Pittsburgh,PITTSBURGH,Allegheny County,PA,15213,40.44540541,-79.95087111,POOLS (INDOOR),2022-04-05T14:00:00,2022-04-06T14:29:00,INITIAL INSPECTION,t,1,WILSON ANGELA,2.4,,0.2,,,,7.2,,,110,t,t,f,t,t,t,4/6/2022
127191,198825,10317,WINCHESTER ASSOCIATION POOL,540 N NEVILLE STREET,,Pittsburgh,Pittsburgh,Allegheny County,PA,15213,40.44908953,-79.94842847,POOL (CONDO INDOOR),2022-04-05T15:00:00,2022-04-06T15:30:00,INITIAL INSPECTION,t,1,WILSON ANGELA,6,,0.2,,,,7.4,,,45,t,t,t,t,t,t,5/9/2022
127192,198966,2305,CLUB JULIAN POOL,101 CORBETT COURT,,Ross Township,PITTSBURGH,Allegheny County,PA,15237,40.54776197,-80.0195882,POOLS (INDOOR),2022-04-14T09:00:00,2022-04-15T09:20:00,INITIAL INSPECTION,t,1,NOBBS SCOTT,2.4,2.4,1.6,1.8,,,7.4,7.4,,75,t,t,t,t,t,t,6/29/2022
127195,199134,2005,JEWISH COMMUNITY CENTER MEN'S SPA,5738 FORBES AVENUE,,Pittsburgh,PITTSBURGH,Allegheny County,PA,15217,40.43766873,-79.92390396,SPA/HOT TUB (INDOOR),2022-04-25T12:30:00,2022-04-26T12:45:00,INITIAL INSPECTION,f,1,MURPHY COLLEEN,3,,0,,,,7.6,,,80,t,t,t,t,t,t,4/26/2022
127196,199221,1199,CAMBRIA SUITES PGH @ PPG PAINTS ARENA POOL,1320 CENTRE  AVENUE,,Pittsburgh,PITTSBURGH,Allegheny County,PA,15219,40.44009334,-79.98798104,POOLS (INDOOR),2022-04-28T13:55:00,2022-05-02T13:20:00,INITIAL INSPECTION,t,1,ANDERSON IAN,6.2,,0,,,,<7.0,,,62,t,t,f,t,f,t,6/3/2022
127197,199222,1200,CAMBRIA SUITES PGH @ PPG PAINTS ARENA SPA,1320 CENTRE AVENUE,,Pittsburgh,PITTSBURGH,Allegheny County,PA,15219,40.44009334,-79.98798104,SPA/HOT TUB (INDOOR),2022-04-28T14:30:00,2022-05-02T15:00:00,INITIAL INSPECTION,t,1,ANDERSON IAN,22.5,,0,,,,7.4,,,44,t,t,f,t,t,t,6/3/2022
127198,199269,4961,HILTON GARDEN INN - POOL,303 PARK MANOR  DRIVE,,Robinson Township,PITTSBURGH,Allegheny County,PA,15205,40.45022052,-80.16668728,POOLS (INDOOR),2022-05-02T09:35:00,2022-05-04T10:35:00,INITIAL INSPECTION,t,1,MANOWN MARYANN,3,,0.2,,,,7.4,,,55,t,t,f,t,t,t,
127199,199293,1971,TREES HALL POOL,1971 ALLEQUIPPA STREET,,Pittsburgh,PITTSBURGH,Allegheny County,PA,15260,,,POOLS (SCHOOLS),2022-04-25T12:00:00,2022-05-05T14:00:00,INITIAL INSPECTION,t,1,FREEMAN MICHELE,5.4,5.4,0.4,0.4,0,0,7.8,7.8,<50,,t,t,f,t,t,t,7/7/2022
127200,199325,10317,WINCHESTER ASSOCIATION POOL,540 N NEVILLE STREET,,Pittsburgh,Pittsburgh,Allegheny County,PA,15213,40.44908953,-79.94842847,POOL (CONDO INDOOR),2022-05-06T15:00:00,2022-05-09T15:10:00,FOLLOW UP INSPECTION,t,2,WILSON ANGELA,,,,,,,,,,,t,t,t,t,t,t,5/9/2022
127201,199332,1384,WYNDHAM UNIVERSITY CENTER / POOL,100 LYTTON AVENUE,,Pittsburgh,PITTSBURGH,Allegheny County,PA,15213,40.44610062,-79.9546331,POOLS (INDOOR),2022-05-06T11:00:00,2022-05-09T12:00:00,FOLLOW UP INSPECTION,t,2,WILSON ANGELA,1.4,,0.8,,,,7.4,,,100,t,t,f,t,t,t,6/9/2023
127203,199405,9057,ATRIA OF MCCANDLESS - POOL,8870 DUNCAN AVENUE,,McCandless,Pittsburgh,Allegheny County,PA,15237,40.56672791,-80.02722326,POOLS (INDOOR),2022-05-11T10:30:00,2022-05-11T11:15:00,INITIAL INSPECTION,f,1,NOBBS SCOTT,2.6,,0,,,,7.6,,,45,t,t,t,t,t,t,5/12/2022
127204,199556,7735,COMFORT INN SUITES - POOL,180 GAMMA  DRIVE,,O'Hara Township,Pittsburgh,Allegheny County,PA,15238,40.50184687,-79.86039245,POOLS (INDOOR),2022-05-20T13:00:00,2022-05-23T15:00:00,INITIAL INSPECTION,t,1,FREEMAN MICHELE,14,14,0.2,0.2,0,0,7.2,7.2,0,70,t,t,f,t,t,t,
127206,199630,2234,HOLIDAY INN EXPRESS HARMAR / POOL,10 LANDINGS  DRIVE,,Harmar Township,PITTSBURGH,Allegheny County,PA,15238,40.54030126,-79.82703113,POOLS (INDOOR),2022-05-25T10:00:00,2022-05-27T12:00:00,INITIAL INSPECTION,t,1,FREEMAN MICHELE,15,15,0.2,0.2,0,0,7.8,7.8,<50,,t,t,t,t,t,t,
127207,199645,748,COMFORT INN PITTSBURGH EAST POOL,699 RODI ROAD,,Wilkins Township,PITTSBURGH,Allegheny County,PA,15235,40.44329575,-79.82655393,POOLS (INDOOR),2022-05-27T12:00:00,2022-05-31T12:20:00,INITIAL INSPECTION,t,1,WILSON ANGELA,7.5,,0.6,,,,7.4,,,138,t,t,f,t,t,t,12/14/2022
127208,199652,1077,BRENTMOOR AT PENN CENTER POOL,1100 PENN CENTER BOULEVARD,,Wilkins Township,PITTSBURGH,Allegheny County,PA,15235,40.4248348,-79.81347266,POOLS (INDOOR),2022-05-27T11:00:00,2022-05-31T11:10:00,INITIAL INSPECTION,t,1,WILSON ANGELA,2.4,,0,,,,7.6,,,,t,t,f,t,t,t,6/22/2022
127209,199660,1941,PGH GREENFIELD K - 8  POOL,1 ALGER STREET,,Pittsburgh,PITTSBURGH,Allegheny County,PA,,40.42618829,-79.94318998,POOLS (SCHOOLS),2022-05-27T11:00:00,2022-05-31T12:30:00,INITIAL INSPECTION,t,1,TIJANI ISSA,3,3,0.2,0.2,,,7.4,7.4,,190,t,t,t,t,t,t,6/1/2022
127211,199722,2020,MOORE POOL/CITY OF PITTSBURGH,1801 PIONEER AVENUE,,Pittsburgh,PITTSBURGH,Allegheny County,PA,15226,40.40554986,-80.01393522,POOLS (OUTDOOR),2022-06-03T13:30:00,2022-06-06T14:30:00,FOLLOW UP INSPECTION,t,2,CALIGURI JASON,5,5,0.5,0.5,,,7.2,7.2,,1106,t,t,f,t,t,t,8/15/2022
127212,199727,10737,CAMBRIA SUITES PGH @ PPG PAINTS ARENA POOL,1320 CENTRE  AVENUE,,Pittsburgh,Pittsburgh,Allegheny County,PA,15219,40.44009334,-79.98798104,POOLS (INDOOR),2022-06-01T14:00:00,2022-06-06T15:00:00,INITIAL INSPECTION,t,1,ANDERSON IAN,2.8,,0,,,,7.4,,,60,t,t,f,t,t,t,9/14/2023
127213,199956,2272,PRESIDENTIAL ARMS POOL,9815 PRESIDENTIAL DRIVE,,McCandless,PITTSBURGH,Allegheny County,PA,15101,40.58386683,-79.99839839,POOLS (OUTDOOR),2022-06-10T14:30:00,2022-06-16T13:30:00,INITIAL INSPECTION,t,1,NOBBS SCOTT,1.4,1.6,0.2,0.2,,,7.2,7.2,45,140,t,t,t,t,t,t,6/28/2022
127220,200041,6721,THE ALDEN SOUTH HILLS,5492 YOUNGRIDGE  DRIVE,,Baldwin,PITTSBURGH,Allegheny County,PA,15236,40.33859435,-79.97885926,POOLS (OUTDOOR),2022-06-20T12:30:00,2022-06-21T14:00:00,FOLLOW UP INSPECTION,t,2,CONLEY FAON,4,4,0,0,0,0,7.4,7.4,,200,t,t,f,t,t,t,7/3/2023
127221,200062,2047,WESTWOOD POOL/CITY OF PITTSBURGH,100 GUYLAND STREET,,Pittsburgh,PITTSBURGH,Allegheny County,PA,15205,40.43082551,-80.04977502,POOLS (OUTDOOR),2022-06-21T11:30:00,2022-06-22T12:30:00,INITIAL INSPECTION,t,1,LAURIA D. ANTHONY,3,3,3,3,,,8,8,,500,t,t,t,t,f,t,7/18/2022
127227,200162,2204,SHANNOPIN COUNTRY CLUB - POOL & SPRAY PAD,1 WINDMERE ROAD,,Ben Avon Heights,PITTSBURGH,Allegheny County,PA,15202,40.51452753,-80.06919634,POOLS (OUTDOOR),2022-06-23T14:00:00,2022-06-27T14:30:00,INITIAL INSPECTION,t,1,NOBBS SCOTT,1,1,0,0,,,7.4,7.6,,650,t,t,f,t,t,t,6/28/2022
127231,200194,861,CASTLE RIDGE APT POOL,850 BALDWIN  STREET,,Castle Shannon,PITTSBURGH,Allegheny County,PA,15234,40.36501988,-80.03390985,POOLS (OUTDOOR),2022-06-27T13:50:00,2022-06-28T14:15:00,INITIAL INSPECTION,t,1,WOLFE CURRIER,3,,0,,,,7.4,,35,,t,t,f,t,t,t,8/8/2023
127233,200215,8916,HIGHLAND VILLAGE CLUBHOUSE POOL,130 PINEHURST DRIVE,,Ross Township,Pittsburgh,Allegheny County,PA,15229,40.52299271,-80.04688938,POOL (CONDO OUTDOOR),2022-06-27T13:45:00,2022-06-29T15:10:00,INITIAL INSPECTION,t,1,NOBBS SCOTT,2.2,,0.2,,,,7.6,,<30,80,t,t,t,t,t,t,7/7/2022
127234,200218,2297,VALLEY BROOK SWIM CLUB MAIN POOL,1 CALLENDAR  ROAD,,Ross Township,PITTSBURGH,Allegheny County,PA,15237,,,POOLS (OUTDOOR),2022-06-28T12:30:00,2022-06-29T13:00:00,INITIAL INSPECTION,t,1,NOBBS SCOTT,3.4,3.8,0.2,0,,,7.4,7.4,<30,1600,t,t,t,t,t,t,7/7/2022
127235,200240,2255,INGOMAR NORTH SWIM CLUB POOL,460 OLIVE STREET,,McCandless,PITTSBURGH,Allegheny County,PA,15237,40.57336185,-80.04450781,POOLS (OUTDOOR),2022-06-29T14:30:00,2022-06-30T15:15:00,INITIAL INSPECTION,f,1,NOBBS SCOTT,2.6,1.6,0,0,,,7.4,7.2,<30,330,t,t,t,t,t,t,7/1/2022
127238,200256,2434,CHARTIERS COUNTRY CLUB POOL,601 BALDWIN ROAD,,ROBINSON TOWNSHIP,PITTSBURGH,Allegheny County,PA,15205,40.43475636,-80.09294628,POOLS (OUTDOOR),2022-06-24T15:10:00,2022-07-01T15:35:00,FOLLOW UP INSPECTION,t,3,MANOWN MARYANN,1,1,0,0,,,7.4,7.4,0,300,t,t,f,t,t,t,7/11/2022
127240,200265,10879,NEWPORT SQUARE POOL,520 NEWPORT DRIVE,,Penn Hills,Pittsburgh,Allegheny County,PA,15235,40.45577779,-79.82964192,POOL (CONDO OUTDOOR),2022-06-02T11:00:00,2022-07-01T11:46:00,INITIAL INSPECTION,t,1,WILSON ANGELA,1.2,,0,,,,7,,30,110,t,t,f,t,f,t,8/26/2022
127241,200271,2001,PITTSBURGH GOLF CLUB - MAIN POOL,5280 NORTHUMBERLAND  STREET,,Pittsburgh,PITTSBURGH,Allegheny County,PA,15217,40.44022871,-79.93944936,POOLS (OUTDOOR),2022-06-29T14:30:00,2022-07-01T15:00:00,INITIAL INSPECTION,f,1,MURPHY COLLEEN,1.2,,0,,,,7.4,,,250,t,t,t,t,t,t,7/1/2022
127242,200275,2491,IRISH CENTER POOL,6886 FORWARD AVENUE,,Pittsburgh,PITTSBURGH,Allegheny County,PA,15217,40.42737017,-79.90644112,POOLS (OUTDOOR),2022-06-29T16:00:00,2022-07-01T16:15:00,INITIAL INSPECTION,f,1,MURPHY COLLEEN,,,,,,,,,,,t,t,t,t,t,t,6/29/2022
127243,200298,2047,WESTWOOD POOL/CITY OF PITTSBURGH,100 GUYLAND STREET,,Pittsburgh,PITTSBURGH,Allegheny County,PA,15205,40.43082551,-80.04977502,POOLS (OUTDOOR),2022-07-05T15:20:00,2022-07-06T16:00:00,FOLLOW UP INSPECTION,t,2,LAURIA D. ANTHONY,3,3,0,0,,,7.5,7.6,,500,t,t,t,t,f,t,7/18/2022
127245,200315,1971,TREES HALL POOL,1971 ALLEQUIPPA STREET,,Pittsburgh,PITTSBURGH,Allegheny County,PA,15260,,,POOLS (SCHOOLS),2022-07-01T12:00:00,2022-07-06T14:00:00,FOLLOW UP INSPECTION,t,2,FREEMAN MICHELE,3,2.6,0.2,0.2,0,0,7.6,7.6,<50,510,t,t,f,t,t,t,7/7/2022
127246,200328,2038,SUE MURRAY POOL/CITY OF PITTSBURGH,301 CEDAR AVENUE,,Pittsburgh,PITTSBURGH,Allegheny County,PA,15212,40.45097178,-80.00131743,POOLS (OUTDOOR),2022-07-06T14:30:00,2022-07-07T15:45:00,INITIAL INSPECTION,f,1,NOBBS SCOTT,1.8,2,0,0,,,7.4,7.4,<30,1000,t,t,t,t,t,t,7/18/2022
127247,200338,2023,TRIMONT RESIDENTIAL CONDOS POOL,1 TRIMONT LANE,,Pittsburgh,PITTSBURGH,Allegheny County,PA,15211,40.43822854,-80.02018731,POOL (CONDO OUTDOOR),2022-07-06T13:30:00,2022-07-07T14:30:00,FOLLOW UP INSPECTION,t,3,MANOWN MARYANN,1.5,,0,,,,7.2,,50,42,t,t,f,t,f,t,8/29/2022
127252,199483,679,KINGSLEY COMMUNITY CENTER POOL,6435 FRANKSTOWN  AVENUE,,Pittsburgh,PITTSBURGH,Allegheny County,PA,15206,40.46146029,-79.91539965,POOLS (INDOOR),2022-05-16T09:00:00,2022-05-18T09:03:00,FOLLOW UP INSPECTION,t,2,WILSON ANGELA,,,,,,,,,,,t,t,f,t,t,t,5/19/2022
127253,199567,2020,MOORE POOL/CITY OF PITTSBURGH,1801 PIONEER AVENUE,,Pittsburgh,PITTSBURGH,Allegheny County,PA,15226,40.40554986,-80.01393522,POOLS (OUTDOOR),2022-05-20T13:30:00,2022-05-23T14:37:00,INITIAL INSPECTION,t,1,CALIGURI JASON,6.5,6.5,0.5,0.5,,,7,7,,900,t,t,f,t,t,t,8/15/2022
127254,199590,7341,HYATT REGENCY PGH INT'L AIRPORT / POOL,1111 AIRPORT  BOULEVARD,Po Box  12420,Findlay Township,Pittsburgh,Allegheny County,PA,15231,40.49635703,-80.25991025,POOLS (INDOOR),2022-05-24T15:30:00,2022-05-25T16:00:00,INITIAL INSPECTION,t,1,MANOWN MARYANN,,,,,16,,7.4,,,,t,t,f,t,t,f,6/8/2022
127255,199610,1232,THE METROPOLITAN SHADYSIDE POOL,537 N NEVILLE STREET,,Pittsburgh,PITTSBURGH,Allegheny County,PA,15213,40.44932922,-79.94771146,POOL (CONDO INDOOR),2022-05-25T13:55:00,2022-05-27T14:30:00,INITIAL INSPECTION,f,1,ANDERSON IAN,5,,0,,,,7.8,,,25,t,t,t,t,t,t,5/31/2022
127257,199631,2234,HOLIDAY INN EXPRESS HARMAR / POOL,10 LANDINGS  DRIVE,,Harmar Township,PITTSBURGH,Allegheny County,PA,15238,40.54030126,-79.82703113,POOLS (INDOOR),2022-05-26T10:00:00,2022-05-27T11:00:00,FOLLOW UP INSPECTION,t,2,FREEMAN MICHELE,2.6,2.6,0.2,0.2,0,0,7.4,7.4,<50,,t,t,t,t,t,t,
127259,199647,747,COMFORT INN PITTSBURGH EAST SPA,699 RODI ROAD,,Wilkins Township,PITTSBURGH,Allegheny County,PA,15235,40.44329575,-79.82655393,SPA/HOT TUB (INDOOR),2022-05-27T11:30:00,2022-05-31T11:59:00,INITIAL INSPECTION,t,1,WILSON ANGELA,5,,0.2,,,,7.4,,,60,t,t,t,t,t,t,5/31/2022
127260,199751,373,FOX CHAPEL YACHT CLUB WADING POOL,1366 OLD FREEPORT ROAD,,O'Hara Township,PITTSBURGH,Allegheny County,PA,15238,40.48569175,-79.87248037,WADING POOL SYSTEM,2022-06-06T13:00:00,2022-06-07T15:00:00,INITIAL INSPECTION,t,1,FREEMAN MICHELE,2.2,,0.2,,0,0,7.2,,<50,,t,t,t,t,t,t,8/10/2023
127263,199827,372,FOX CHAPEL YACHT CLUB POOL,1366 OLD FREEPORT ROAD,,O'Hara Township,PITTSBURGH,Allegheny County,PA,15238,40.48569175,-79.87248037,POOLS (OUTDOOR),2022-06-08T09:30:00,2022-06-09T10:00:00,FOLLOW UP INSPECTION,t,2,FREEMAN MICHELE,1.2,1.2,0.2,0.2,0,0,7.4,7.4,<50,250,t,t,t,t,t,t,8/10/2023
127264,199835,2471,MONTCLAIR POOL,1217 SHERBROOK DRIVE,,Upper St Clair Township,PITTSBURGH,Allegheny County,PA,15241,,,POOL (CONDO OUTDOOR),2022-06-09T11:05:00,2022-06-09T11:25:00,INITIAL INSPECTION,f,1,WOLFE CURRIER,1.2,,0,,,,7.6,,20,170,t,t,t,t,t,t,6/23/2022
127268,199919,2235,FOREST HIGHLANDS COMMUNITY ASSOC POOL, FOREST HIGHLAND  DRIVE,,Harmar Township,PITTSBURGH,Allegheny County,PA,15238,,,POOL (CONDO OUTDOOR),2022-06-13T10:00:00,2022-06-14T11:00:00,INITIAL INSPECTION,t,1,FREEMAN MICHELE,2.8,2.8,0.2,0.2,0,0,7.4,7.4,<50,,t,t,t,t,t,t,7/6/2023
127271,199962,6922,OXFORD COURT CONDO POOL,39-P OXFORD COURT,,McCandless,PITTSBURGH,Allegheny County,PA,15237,40.57751359,-80.05501726,POOL (CONDO OUTDOOR),2022-06-14T11:35:00,2022-06-16T12:00:00,INITIAL INSPECTION,f,1,NOBBS SCOTT,1.6,,0,,,,7.2,,<30,65,t,t,t,t,t,t,7/7/2022
127273,199749,372,FOX CHAPEL YACHT CLUB POOL,1366 OLD FREEPORT ROAD,,O'Hara Township,PITTSBURGH,Allegheny County,PA,15238,40.48569175,-79.87248037,POOLS (OUTDOOR),2022-06-06T13:00:00,2022-06-07T15:00:00,INITIAL INSPECTION,t,1,FREEMAN MICHELE,0.2,0.2,0.2,0.2,0,0,7,7,<50,250,t,t,t,t,t,t,8/10/2023
127274,199755,1227,COBBLESTONE CONDOMINIUM/ POOL,175 COBBLESTONE DRIVE,,Ohio Township,PITTSBURGH,Allegheny County,PA,15237,40.53913818,-80.08269736,POOL (CONDO OUTDOOR),2022-06-03T14:00:00,2022-06-07T15:20:00,FOLLOW UP INSPECTION,t,3,NOBBS SCOTT,4.4,,0,,,,7.4,,45,60,t,t,f,t,t,t,7/25/2022
127276,199800,1963,DITHRIDGE HOUSE - POOL,220 N DITHRIDGE STREET,,Pittsburgh,PITTSBURGH,Allegheny County,PA,15213,40.44984052,-79.95200454,POOL (CONDO INDOOR),2022-06-08T09:00:00,2022-06-08T09:30:00,INITIAL INSPECTION,t,1,WILSON ANGELA,2.6,,0,,,,7.4,,,42,t,t,f,t,t,t,1/11/2023
127277,199826,10518,FRANKLIN RIDGE ESTATES CSA POOL,1624 COUNTRY CLUB DRIVE,,Franklin Park,Pittsburgh,Allegheny County,PA,15237,40.56377426,-80.08273891,POOL (CONDO OUTDOOR),2022-06-08T14:30:00,2022-06-09T16:10:00,INITIAL INSPECTION,t,1,NOBBS SCOTT,7,3.2,0,0,,,7.4,7.4,<50,,t,t,t,t,t,t,7/14/2022
127278,199836,669,DAYS INN - BANKSVILLE POOL,1150 BANKSVILLE ROAD,,Pittsburgh,PITTSBURGH,Allegheny County,PA,15216,40.41920306,-80.03026905,POOLS (OUTDOOR),2022-06-08T13:10:00,2022-06-09T13:45:00,INITIAL INSPECTION,t,1,MANOWN MARYANN,5,,0.2,,,,7,,<30,,t,t,f,t,f,t,9/1/2022
127279,199849,7206,CALAIS VILLAGE CONDO POOL,553 SLOOP ROAD,,McCandless,Pittsburgh,Allegheny County,PA,15237,40.56568866,-80.05463373,POOL (CONDO OUTDOOR),2022-06-03T13:00:00,2022-06-10T13:45:00,FOLLOW UP INSPECTION,t,3,NOBBS SCOTT,2.8,,0,,,,7.4,,45,70,t,t,f,t,t,t,6/22/2022
127280,199913,9497,BRENTWOOD PARK POOL,122  PARK DRIVE,,Brentwood,Pittsburgh,Allegheny County,PA,15227,40.37572803,-79.97325504,POOLS (OUTDOOR),2022-06-13T12:45:00,2022-06-15T13:50:00,INITIAL INSPECTION,t,1,CONLEY FAON,4.2,4.2,0,0,,,7.4,7.4,,650,t,t,f,t,t,t,7/14/2023
127281,199916,1077,BRENTMOOR AT PENN CENTER POOL,1100 PENN CENTER BOULEVARD,,Wilkins Township,PITTSBURGH,Allegheny County,PA,15235,40.4248348,-79.81347266,POOLS (INDOOR),2022-06-14T11:15:00,2022-06-15T11:25:00,FOLLOW UP INSPECTION,t,2,WILSON ANGELA,,,,,,,,,,,t,t,f,t,t,t,6/22/2022
127283,199954,5481,EASTSIDE BOND APARTMENT POOL,6105 SPIRIT STREET,,Pittsburgh,PITTSBURGH,Allegheny County,PA,15206,40.46007757,-79.92325625,POOLS (OUTDOOR),2022-06-14T14:00:00,2022-06-16T14:50:00,INITIAL INSPECTION,t,1,ANDERSON IAN,5,,0,,,,7.4,,,90,t,t,f,t,t,t,7/25/2022
127286,200393,1981,ESSEX HOUSE POOL,5701 CENTRE AVENUE,,Pittsburgh,PITTSBURGH,Allegheny County,PA,15206,40.45770212,-79.93351236,POOL (CONDO OUTDOOR),2022-07-07T13:15:00,2022-07-11T14:00:00,INITIAL INSPECTION,t,1,TIJANI ISSA,7,7,0,0,,,7.4,7.4,,100,t,t,f,t,t,t,7/14/2022
127287,200422,8956,LOFTS AT TERRAIN APARTMENTS - POOL,700 MANSFIELD AVENUE,,Green Tree,Pittsburgh,Allegheny County,PA,15205,40.41745617,-80.06512366,POOLS (OUTDOOR),2022-07-07T14:45:00,2022-07-11T15:20:00,FOLLOW UP INSPECTION,t,3,MANOWN MARYANN,0,,,,,,7.6,,40,55,t,t,f,t,t,f,8/30/2022
127288,200423,8956,LOFTS AT TERRAIN APARTMENTS - POOL,700 MANSFIELD AVENUE,,Green Tree,Pittsburgh,Allegheny County,PA,15205,40.41745617,-80.06512366,POOLS (OUTDOOR),2022-07-08T10:50:00,2022-07-12T11:05:00,FOLLOW UP INSPECTION,t,4,MANOWN MARYANN,3,,0,,,,,,,,t,t,f,t,t,f,8/30/2022
127289,200424,1985,HIGHLAND PARK POOL/CITY OF PITTSBURGH,151 LAKE DRIVE,,Pittsburgh,PITTSBURGH,Allegheny County,PA,15206,,,POOLS (OUTDOOR),2022-07-11T10:30:00,2022-07-12T12:30:00,INITIAL INSPECTION,t,1,FREEMAN MICHELE,0.8,0.4,0.2,0.2,0,0,7.4,7.6,<50,1600,t,t,t,t,t,f,7/15/2022
127290,200427,1986,HIGHLAND PARK CLUB POOL,1001 N NEGLEY AVENUE,,Pittsburgh,PITTSBURGH,Allegheny County,PA,15206,40.47442252,-79.92535753,POOLS (OUTDOOR),2022-07-12T11:30:00,2022-07-12T12:30:00,INITIAL INSPECTION,t,1,FREEMAN MICHELE,2,2,0.2,0.2,0,0,7.6,7.6,<50,50,t,t,f,t,t,t,6/20/2023
127294,200469,365,GREENTREE WILSON PARK WADING POOL,825 POPLAR STREET,,Green Tree,PITTSBURGH,Allegheny County,PA,15220,40.41866469,-80.05012334,WADING POOL SYSTEM,2022-07-08T12:30:00,2022-07-13T13:05:00,INITIAL INSPECTION,t,1,MANOWN MARYANN,8,,0,,,,7.2,,0,90,t,t,f,t,t,t,7/14/2022
127295,200492,2475,WOODLAND HILLS CLUB POOL,2799 BINGHAM DRIVE,,Upper St Clair Township,PITTSBURGH,Allegheny County,PA,15241,40.31280162,-80.10647077,POOLS (OUTDOOR),2022-07-13T14:20:00,2022-07-14T14:55:00,INITIAL INSPECTION,t,1,WOLFE CURRIER,1,1.2,0,0,,,7.4,7.4,<30,550,t,t,t,t,t,t,7/18/2022
127302,200035,2045,STACK(JACK)POOL/CITY OF PITTSBURGH,600 BRIGHTON WOOD ROAD,,Pittsburgh,PITTSBURGH,Allegheny County,PA,15212,40.48688922,-80.03063634,POOLS (OUTDOOR),2022-06-20T11:30:00,2022-06-21T12:30:00,INITIAL INSPECTION,t,1,LAURIA D. ANTHONY,2.8,2.8,3,3,,,7.8,7.8,,800,t,t,f,t,t,t,8/1/2022
127306,200061,2044,RIVERVIEW PARK POOL/CITY OF PITTSBURGH,400 RIVERVIEW  AVENUE,,Pittsburgh,PITTSBURGH,Allegheny County,PA,15214,40.47969853,-80.01842889,POOLS (OUTDOOR),2022-06-21T15:00:00,2022-06-22T16:00:00,INITIAL INSPECTION,f,1,LAURIA D. ANTHONY,,,,,3,3,7.4,7.4,,1000,t,t,t,t,t,t,6/29/2022
127307,200063,2461,JAMESTOWN CONDO POOL,500 ALDEN DRIVE,,Scott Township,PITTSBURGH,Allegheny County,PA,15220,40.39276731,-80.06084468,POOL (CONDO OUTDOOR),2022-06-21T14:45:00,2022-06-22T15:25:00,FOLLOW UP INSPECTION,t,5,WOLFE CURRIER,0.6,0.6,0,0,,,7,7.4,>30,315,t,t,f,t,f,t,8/22/2022
127309,200082,50,DOMINION HOME OWNERS ASSC POOL,1484 ZENITH COURT,,Upper St Clair Township,PITTSBURGH,Allegheny County,PA,15241,40.35420364,-80.08422504,POOL (CONDO OUTDOOR),2022-06-22T13:15:00,2022-06-22T13:45:00,FOLLOW UP INSPECTION,t,2,WOLFE CURRIER,3.6,,0,,,,7.4,,<30,95,t,t,f,t,t,t,6/29/2022
127319,200182,1972,AMMON POOL/CITY OF PITTSBURGH,2217 BEDFORD AVENUE,,Pittsburgh,PITTSBURGH,Allegheny County,PA,15219,40.44872564,-79.97788784,POOLS (OUTDOOR),2022-06-27T11:00:00,2022-06-27T13:00:00,INITIAL INSPECTION,t,1,FREEMAN MICHELE,0.4,0.4,0,0,0,0,7.6,7.6,<50,120,t,t,t,t,t,f,7/19/2023
127324,200219,1972,AMMON POOL/CITY OF PITTSBURGH,2217 BEDFORD AVENUE,,Pittsburgh,PITTSBURGH,Allegheny County,PA,15219,40.44872564,-79.97788784,POOLS (OUTDOOR),2022-06-28T09:00:00,2022-06-29T10:00:00,FOLLOW UP INSPECTION,t,2,FREEMAN MICHELE,1.4,1.4,0,0,0,0,7.6,7.4,<50,,t,t,t,t,t,f,7/19/2023
127326,200239,2269,THE CLUB AT NORTH HILLS POOL,700 DUNCAN AVENUE,,McCandless,PITTSBURGH,Allegheny County,PA,15237,40.56773015,-80.01820783,POOLS (OUTDOOR),2022-06-29T14:00:00,2022-06-30T16:00:00,INITIAL INSPECTION,t,1,NOBBS SCOTT,1.2,,0.2,,,,7.4,,<30,80,t,t,t,t,t,t,7/7/2022
127327,200241,6763,CLEVER PARK POOL,115 ROBINSON POOL DRIVE,,Robinson Township,PITTSBURGH,Allegheny County,PA,15136,40.46759505,-80.13238101,POOLS (OUTDOOR),2022-06-23T14:25:00,2022-06-30T15:15:00,FOLLOW UP INSPECTION,t,2,MANOWN MARYANN,4,4.5,0,0,,,7.2,7.2,0,1200,t,t,f,t,t,t,
127329,200272,1162,PITTSBURGH GOLF CLUB - WADING POOL,5280 NORTHUMBERLAND STREET,,Pittsburgh,PITTSBURGH,Allegheny County,PA,15217,40.44022871,-79.93944936,POOLS (OUTDOOR),2022-06-29T14:15:00,2022-07-01T14:30:00,INITIAL INSPECTION,f,1,MURPHY COLLEEN,1.8,,0,,,,7.4,,,50,t,t,t,t,t,t,7/1/2022
127330,200274,5426,CRAFTON BOROUGH SPLASH POOL,117 W STEUBENVILLE  STREET,,Crafton,PITTSBURGH,Allegheny County,PA,15205,40.39898926,-79.90386763,WADING POOL SYSTEM,2022-06-27T15:30:00,2022-07-01T15:50:00,FOLLOW UP INSPECTION,t,2,MANOWN MARYANN,3.5,,0.2,,,,7.6,,0,80,t,t,f,t,t,t,10/25/2022
127331,200313,1970,TREES HALL POOL,1970 ALLEQUIPPA STREET,,Pittsburgh,PITTSBURGH,Allegheny County,PA,15260,,,POOLS (SCHOOLS),2022-07-01T12:00:00,2022-07-06T14:00:00,FOLLOW UP INSPECTION,t,2,FREEMAN MICHELE,3.2,3.4,0.2,0.2,0,0,7.4,7.4,<50,1983,t,t,f,t,t,t,7/7/2022
127332,200314,6801,ARSENAL 201 / POOL,3922 FOSTER STREET,,Pittsburgh,PITTSBURGH,Allegheny County,PA,15201,40.46894588,-79.96459265,POOLS (OUTDOOR),2022-07-01T14:25:00,2022-07-06T15:05:00,INITIAL INSPECTION,t,1,ANDERSON IAN,4.4,,0,,,,7.8,,,92,t,t,t,t,t,t,7/18/2022
127333,200322,8776,BRACKEN HOUSE NORTH SHORE POOL,100 ANDERSON STREET,,PITTSBURGH,Pittsburgh,Allegheny County,PA,15212,40.44863837,-79.99936184,POOLS (OUTDOOR),2022-07-06T13:30:00,2022-07-07T14:20:00,INITIAL INSPECTION,t,1,NOBBS SCOTT,3.2,,0.4,,,,7.2,,<30,80,t,t,f,t,t,t,8/12/2022
127335,200326,553,AVALON POOL,708 NEW BRIGHTON ROAD,,Avalon,PITTSBURGH,Allegheny County,PA,15202,40.5046898,-80.06480715,POOLS (OUTDOOR),2022-07-06T15:45:00,2022-07-07T16:15:00,FOLLOW UP INSPECTION,t,2,LAURIA D. ANTHONY,3,3,0,0,,,7.6,7.6,,570,t,t,f,t,t,t,7/18/2022
127336,200329,2418,BOWER HILL AT MT LEBANON,1150 BOWER HILL ROAD,,Mount Lebanon,PITTSBURGH,Allegheny County,PA,15228,,,POOL (CONDO OUTDOOR),2022-06-29T14:10:00,2022-07-07T14:30:00,INITIAL INSPECTION,f,1,WOLFE CURRIER,2.4,,0,,,,7.2,,<30,150,t,t,t,t,t,t,7/18/2022
127338,200348,2201,BELLEVUE MEMORIAL POOL,320 BELLEVUE ROAD,,Ross Township,PITTSBURGH,Allegheny County,PA,15202,,,POOLS (OUTDOOR),2022-07-07T13:15:00,2022-07-08T13:35:00,INITIAL INSPECTION,t,1,NOBBS SCOTT,1.8,1.8,0,0,,,7.4,7.4,<30,1210,t,t,t,t,t,t,7/14/2022
127339,200349,2365,DORMONT MUNICIPAL POOL, BANKSVILLE  ROAD,,Dormont,PITTSBURGH,Allegheny County,PA,15216,,,POOLS (OUTDOOR),2022-07-07T14:55:00,2022-07-08T15:20:00,FOLLOW UP INSPECTION,t,2,WOLFE CURRIER,2.2,2.2,0,0,,,7.6,7.6,<30,1000,t,t,t,t,f,t,7/18/2022
127340,200352,1227,COBBLESTONE CONDOMINIUM/ POOL,175 COBBLESTONE DRIVE,,Ohio Township,PITTSBURGH,Allegheny County,PA,15237,40.53913818,-80.08269736,POOL (CONDO OUTDOOR),2022-07-07T14:10:00,2022-07-08T14:20:00,FOLLOW UP INSPECTION,t,4,NOBBS SCOTT,,,,,,,,,,,t,t,f,t,t,t,7/25/2022
127341,200359,357,EDGEWOOD CLUB OUTDOOR POOL,1 PENNWOOD AVENUE,,Edgewood,PITTSBURGH,Allegheny County,PA,15218,40.43224868,-79.88523842,POOLS (OUTDOOR),2022-07-07T12:00:00,2022-07-08T12:20:00,INITIAL INSPECTION,f,1,ANDERSON IAN,2.8,2.6,0.2,0,,,7.4,7.6,,350,t,t,t,t,t,t,7/14/2022
127342,200361,358,EDGEWOOD CLUB WADING POOL,1 PENNWOOD AVENUE,,Edgewood,PITTSBURGH,Allegheny County,PA,15218,40.43224868,-79.88523842,WADING POOL SYSTEM,2022-07-07T12:20:00,2022-07-08T12:40:00,INITIAL INSPECTION,t,1,ANDERSON IAN,2,,0.2,,,,7.6,,,55,t,t,f,t,t,t,7/14/2022
127343,200362,2220,INGOMAR SWIM CLUB POOL, INGOMAR HEIGHTS ROAD,,Franklin Park,PITTSBURGH,Allegheny County,PA,15237,,,POOLS (OUTDOOR),2022-07-07T15:05:00,2022-07-08T15:20:00,INITIAL INSPECTION,f,1,NOBBS SCOTT,1,1.4,0,0,,,7.4,7.4,<30,500,t,t,t,t,t,t,7/14/2022
127344,200363,2505,INGOMAR SWIM CLUB WADING POOL, INGOMAR HEIGHTS ROAD,,Franklin Park,PITTSBURGH,Allegheny County,PA,15237,,,WADING POOL SYSTEM,2022-07-07T15:25:00,2022-07-08T15:45:00,INITIAL INSPECTION,f,1,NOBBS SCOTT,1.6,,0.2,,,,7.4,,,50,t,t,t,t,t,t,7/14/2022
127345,200417,12,WALDORF PARK APT POOL,103 MCKNIGHT CIRCLE,,Ross Township,PITTSBURGH,Allegheny County,PA,15237,40.54076625,-80.01507377,POOLS (OUTDOOR),2022-07-08T14:00:00,2022-07-12T15:15:00,INITIAL INSPECTION,t,1,NOBBS SCOTT,2.4,2.2,0.2,0.2,,,7.4,7.4,,,t,t,f,t,t,t,7/14/2022
127346,200426,1985,HIGHLAND PARK POOL/CITY OF PITTSBURGH,151 LAKE DRIVE,,Pittsburgh,PITTSBURGH,Allegheny County,PA,15206,,,POOLS (OUTDOOR),2022-07-12T09:30:00,2022-07-12T11:00:00,FOLLOW UP INSPECTION,t,2,FREEMAN MICHELE,3.4,3.2,0.2,0.2,0,0,7.6,7.6,<50,,t,t,t,t,t,f,7/15/2022
127352,200502,1997,SCHENLEY PARK POOL / CITY OF PITTSBURGH,1 OVERLOOK DRIVE,,Pittsburgh,PITTSBURGH,Allegheny County,PA,15213,,,POOLS (OUTDOOR),2022-07-08T12:00:00,2022-07-14T12:45:00,INITIAL INSPECTION,f,1,MURPHY COLLEEN,5,,0,,,,7.2,,,400,t,t,t,t,t,t,7/15/2022
127353,200503,2006,MAXON TOWERS APT POOL,6315 FORBES AVENUE,,Pittsburgh,PITTSBURGH,Allegheny County,PA,15217,40.43832675,-79.91828564,POOLS (OUTDOOR),2022-07-08T15:00:00,2022-07-14T15:30:00,INITIAL INSPECTION,f,1,MURPHY COLLEEN,2,,0,,,,7.5,,,150,t,t,t,t,t,t,7/15/2022
127354,200505,851,SUMMERSET COMMUNITY WADING,1425 PARKVIEW BOULEVARD,,Pittsburgh,PITTSBURGH,Allegheny County,PA,15217,40.41978366,-79.91613174,WADING POOL SYSTEM,2022-07-08T15:45:00,2022-07-14T16:00:00,INITIAL INSPECTION,f,1,MURPHY COLLEEN,1,,0,,,,7.2,,,30,t,t,t,t,t,t,7/15/2022
127355,200528,2454,SWALLOW HILL CONDO - POOL,2034 SWALLOW HILL ROAD,,Scott Township,PITTSBURGH,Allegheny County,PA,15220,40.39904108,-80.0768483,POOL (CONDO OUTDOOR),2022-07-14T14:45:00,2022-07-15T15:05:00,INITIAL INSPECTION,t,1,WOLFE CURRIER,4.6,,0,,,,7.4,,<30,,t,t,f,t,t,t,
127357,200574,10717,CONNECTIONS AT SOUTH SIDE - POOL,2984 SIDNEY STREET,,Pittsburgh,Pittsburgh,Allegheny County,PA,15203,40.42505919,-79.96185879,POOLS (OUTDOOR),2022-07-15T13:20:00,2022-07-18T14:00:00,INITIAL INSPECTION,t,1,WOLFE CURRIER,4.2,,0,,,,7.2,,48,115,t,t,f,t,t,t,8/26/2022
127359,200597,2497,VILLAGE OF SHADYSIDE / POOL,100 DENNISTON AVENUE,,Pittsburgh,PITTSBURGH,Allegheny County,PA,15206,40.45807251,-79.9201574,POOL (CONDO OUTDOOR),2022-07-18T15:00:00,2022-07-19T15:40:00,INITIAL INSPECTION,t,1,ANDERSON IAN,,,,,5.6,5.8,7.4,7.4,,120,t,t,t,t,t,t,7/21/2022
127362,200619,932,RIVER OAKS COMMUNITY WADING POOL,1 OAKHURST  CIRCLE,,Aspinwall,PITTSBURGH,Allegheny County,PA,15215,40.49765513,-79.90584935,WADING POOL SYSTEM,2022-07-13T13:00:00,2022-07-19T15:00:00,INITIAL INSPECTION,t,1,FREEMAN MICHELE,0.2,,0.2,,0,0,7.4,,<50,50,t,t,f,t,t,f,
127366,200106,1414,HYATT PLACE POOL,260 N SHORE DRIVE,,Pittsburgh,PITTSBURGH,Allegheny County,PA,15212,40.44665593,-80.00914723,POOLS (INDOOR),2022-06-22T14:00:00,2022-06-23T14:30:00,FOLLOW UP INSPECTION,t,3,NOBBS SCOTT,,,,,7.2,,,,,,t,t,f,t,t,t,8/18/2022
127367,200109,2305,CLUB JULIAN POOL,101 CORBETT COURT,,Ross Township,PITTSBURGH,Allegheny County,PA,15237,40.54776197,-80.0195882,POOLS (INDOOR),2022-06-22T14:50:00,2022-06-23T15:20:00,FOLLOW UP INSPECTION,t,3,NOBBS SCOTT,,,1,0.8,,,,,,,t,t,t,t,t,t,6/29/2022
127368,200144,5902,THE RIDGE @ ROBINSON POOL,1501 MEREDITH DRIVE,,Robinson Township,PITTSBURGH,Allegheny County,PA,15205,40.44197976,-80.14335684,POOLS (OUTDOOR),2022-06-21T14:40:00,2022-06-24T15:25:00,FOLLOW UP INSPECTION,t,3,MANOWN MARYANN,8,8,0,0,,,7.4,7.4,50,130,t,t,f,t,f,t,
127369,200163,549,SHANNOPIN COUNTRY CLUB TOT  POOL,1 WINDMERE ROAD,,Ben Avon Heights,PITTSBURGH,Allegheny County,PA,15202,40.51452753,-80.06919634,WADING POOL SYSTEM,2022-06-23T14:30:00,2022-06-27T15:00:00,INITIAL INSPECTION,t,1,NOBBS SCOTT,1,,0.2,,,,7.4,,,,t,t,t,t,t,t,6/28/2022
127370,200170,2483,SOUTH HILLS COUNTRY CLUB POOL,4305 BROWNSVILLE ROAD,,Whitehall,PITTSBURGH,Allegheny County,PA,15236,40.36094836,-79.98554655,POOLS (OUTDOOR),2022-06-23T14:00:00,2022-06-27T15:00:00,FOLLOW UP INSPECTION,t,6,CONLEY FAON,4,4,0,0,0,0,7.4,7.4,,550,t,t,f,t,t,t,7/21/2023
127371,200171,675,SOUTH HILLS COUNTRY CLUB / WADING POOL,4305 BROWNSVILLE ROAD,,Whitehall,PITTSBURGH,Allegheny County,PA,15236,40.36094836,-79.98554655,WADING POOL SYSTEM,2022-06-23T14:00:00,2022-06-27T15:00:00,FOLLOW UP INSPECTION,t,2,CONLEY FAON,4,4,0,0,0,0,7.4,7.4,,120,t,t,f,t,t,t,6/29/2022
127372,200197,9857,HAMILTON PLACE POOL,100 ADDIE  COURT,,Castle Shannon,Pittsburgh,Allegheny County,PA,15234,40.36364913,-80.01782938,POOLS (OUTDOOR),2022-06-27T14:25:00,2022-06-28T14:55:00,INITIAL INSPECTION,t,1,WOLFE CURRIER,5,,0.2,,,,7.2,,<30,40,t,t,f,t,t,t,8/11/2023
127374,200211,7756,THE EVALEE,7 DORCHESTER DRIVE,,Bethel Park,Pittsburgh,Allegheny County,PA,15241,40.34084473,-80.05084861,POOLS (OUTDOOR),2022-06-24T14:00:00,2022-06-29T15:15:00,FOLLOW UP INSPECTION,t,2,CONLEY FAON,5,5,0,0,0,0,7.2,7.2,,150,t,t,f,t,t,t,7/1/2022
127375,200220,15,VALLEY BROOK SWIM CLUB-WADING,1 CALLENDER  ROAD,,Ross Township,PITTSBURGH,Allegheny County,PA,15237,,,WADING POOL SYSTEM,2022-06-28T13:00:00,2022-06-29T13:30:00,INITIAL INSPECTION,t,1,NOBBS SCOTT,1,,0.2,,,,7.4,,,20,t,t,t,t,t,t,7/7/2022
127386,200167,2444,CHESTNUT RIDGE APARTMENT POOL,3200 CHESTNUT RIDGE ROAD,,ROBINSON TOWNSHIP,PITTSBURGH,Allegheny County,PA,15205,40.43571688,-80.15596591,POOLS (OUTDOOR),2022-06-23T15:30:00,2022-06-27T16:15:00,FOLLOW UP INSPECTION,t,2,MANOWN MARYANN,4,,0,,,,7.6,,50,65,t,t,f,t,t,t,8/22/2022
127391,200665,414,OAK HILL APT POOL,280 BURROWS STREET,,Pittsburgh,PITTSBURGH,Allegheny County,PA,15213,40.43968839,-79.97008629,POOLS (OUTDOOR),2022-07-20T10:10:00,2022-07-21T10:45:00,INITIAL INSPECTION,t,1,WILSON ANGELA,1.6,,0.2,,,,7.4,,30,80,t,t,f,t,t,t,8/5/2022
127394,200719,5982,NINETEEN NORTH APARTMENT POOL,1050 19TH NORTH DRIVE,,McCandless,PITTSBURGH,Allegheny County,PA,15237,40.56650574,-80.04156585,POOLS (OUTDOOR),2022-07-22T15:15:00,2022-07-25T15:50:00,INITIAL INSPECTION,t,1,NOBBS SCOTT,1.8,1.6,0.2,0.2,,,7.4,7.4,,145,t,t,t,t,t,t,8/25/2022
127395,200726,2506,FOREST HILLS COMMUNITY POOL,400 BRADDOCK ROAD,,Forest Hills,PITTSBURGH,Allegheny County,PA,15221,40.42479529,-79.85632684,POOLS (OUTDOOR),2022-07-19T14:00:00,2022-07-25T14:45:00,INITIAL INSPECTION,f,1,MURPHY COLLEEN,2,,0,,,,7.4,,,680,t,t,t,t,t,t,8/4/2022
127400,200742,5442,THE YARDS @ 3 CROSSINGS - POOL,2625 RAILROAD  STREET,,Pittsburgh,PITTSBURGH,Allegheny County,PA,15222,,,POOLS (OUTDOOR),2022-07-22T09:30:00,2022-07-26T10:00:00,INITIAL INSPECTION,f,1,MURPHY COLLEEN,1,,0,,,,7.4,,,120,t,t,t,t,t,t,8/5/2022
127401,200751,10680,THE CORK FACTORY LOFTS-SPA,2349 RAILROAD STREET,,Pittsburgh,Pittsburgh,Allegheny County,PA,15222,40.45469467,-79.98337625,SPA/HOT TUB (INDOOR),2022-07-22T10:30:00,2022-07-26T10:45:00,INITIAL INSPECTION,f,1,MURPHY COLLEEN,2,,0,,,,7.2,,,10,t,t,t,t,t,t,8/4/2022
127402,200752,10679,THE CORK FACTORY LOFTS POOL,2349 RAILROAD STREET,,Pittsburgh,Pittsburgh,Allegheny County,PA,15222,40.45469467,-79.98337625,POOLS (OUTDOOR),2022-07-22T10:45:00,2022-07-26T11:15:00,INITIAL INSPECTION,f,1,MURPHY COLLEEN,1.8,,0,,,,7.4,,,65,t,t,t,t,t,t,8/4/2022
127403,200772,10739,CAMBRIA SUITES PGH @ PPG PAINTS ARENA SPA,1320 CENTRE AVENUE,,Pittsburgh,Pittsburgh,Allegheny County,PA,15219,40.44009334,-79.98798104,SPA/HOT TUB (INDOOR),2022-07-25T14:20:00,2022-07-27T15:00:00,INITIAL INSPECTION,t,1,ANDERSON IAN,9.8,,0,,,,7.2,,,60,t,t,f,t,t,t,1/5/2024
127406,200795,1305,SAMPSON YMCA OUTDOOR POOL,2200 GOLDEN MILE  HIGHWAY,Rt#286,Plum,PITTSBURGH,Allegheny County,PA,15239,40.45807353,-79.7076382,POOLS (OUTDOOR),2022-07-26T12:41:00,2022-07-27T13:15:00,INITIAL INSPECTION,t,1,WILSON ANGELA,2.2,2.8,0,0,,,7.4,7.4,<30,560,t,t,f,t,t,t,8/26/2022
127409,200248,1943,RIVERS CLUB / INDOOR POOL,301 GRANT STREET,Ste 411,Pittsburgh,PITTSBURGH,Allegheny County,PA,15219,40.43800708,-79.99861019,POOLS (INDOOR),2022-06-27T09:30:00,2022-07-01T10:00:00,INITIAL INSPECTION,f,1,MURPHY COLLEEN,5,,0,,,,7.3,,,90,t,t,t,t,t,t,7/1/2022
127410,200250,1944,RIVERS CLUB MEN'S SPA,301 GRANT STREET, #411,Pittsburgh,PITTSBURGH,Allegheny County,PA,15219,40.43800708,-79.99861019,SPA/HOT TUB (INDOOR),2022-06-27T10:00:00,2022-07-01T10:15:00,INITIAL INSPECTION,f,1,MURPHY COLLEEN,,,,,3,,7.4,,,10,t,t,t,t,t,t,7/1/2022
127411,200254,2490,CHARTIERS COUNTRY CLUB WADING POOL,601 BALDWIN ROAD,,ROBINSON TOWNSHIP,PITTSBURGH,Allegheny County,PA,15205,40.43475636,-80.09294628,WADING POOL SYSTEM,2022-06-24T14:45:00,2022-07-01T15:10:00,FOLLOW UP INSPECTION,t,3,MANOWN MARYANN,1,,0.2,,,,7,,<30,10,t,t,f,t,f,t,
127415,200316,9517,HIGHLAND HOUSE TOWER POOL,5700 BUNKERHILL STREET,,Pittsburgh,Pittsburgh,Allegheny County,PA,15206,40.47928367,-79.91943056,POOLS (OUTDOOR),2022-07-06T11:00:00,2022-07-06T12:30:00,INITIAL INSPECTION,t,1,FREEMAN MICHELE,2,2,0.2,0.2,0,0,7,7,<50,60,t,t,f,t,t,t,11/22/2023
127416,200320,2422,MT LEBANON MUNICIPAL POOL,900 CEDAR BOULEVARD,,Mount Lebanon,PITTSBURGH,Allegheny County,PA,15228,40.37406275,-80.05533172,POOLS (OUTDOOR),2022-07-06T14:25:00,2022-07-07T14:55:00,INITIAL INSPECTION,t,1,WOLFE CURRIER,2.2,3.4,,,,,7.6,7.6,<30,450,t,t,t,t,t,t,7/18/2022
127417,200333,2419,BOWER HILL III APTS - POOL,1170 BOWER HILL ROAD,,Mount Lebanon,PITTSBURGH,Allegheny County,PA,15228,,,POOLS (OUTDOOR),2022-07-06T13:35:00,2022-07-07T14:10:00,FOLLOW UP INSPECTION,t,3,WOLFE CURRIER,7.2,,0,,,,7,,35,90,t,t,f,t,f,t,7/12/2022
127418,200358,9697,HAMPSHIRE HOUSE APT POOL,195 MT LEBANON BOULEVARD,,Mount Lebanon,Pittsburgh,Allegheny County,PA,15228,40.36832596,-80.03882407,POOLS (OUTDOOR),2022-07-07T14:00:00,2022-07-08T14:35:00,INITIAL INSPECTION,t,1,WOLFE CURRIER,2.8,,0,,,,7,,<30,120,t,t,t,t,f,t,8/25/2023
127420,200394,5882,THE FOUNDRY AT 41ST POOL,4107 WILLOW STREET,,Pittsburgh,PITTSBURGH,Allegheny County,PA,15201,40.47185423,-79.96412576,POOLS (OUTDOOR),2022-07-07T12:00:00,2022-07-11T12:50:00,INITIAL INSPECTION,f,1,TIJANI ISSA,2.8,2.8,0,0,,,7.4,7.4,,75,t,t,t,t,t,t,7/14/2022
127421,200413,10939,BOWER HILL III APTS - POOL,1170 BOWER HILL ROAD,,Mount Lebanon,Pittsburgh,Allegheny County,PA,15243,40.37679027,-80.07244576,POOLS (OUTDOOR),2022-07-06T13:35:00,2022-07-12T14:05:00,INITIAL INSPECTION,t,1,WOLFE CURRIER,7.2,,0,,,,7,,35,90,t,t,f,t,f,t,8/23/2022
127424,200447,2298,CHARLEMAGNE II POOL,4000 CHARLEMAGNE CIRCLE,,Ross Township,PITTSBURGH,Allegheny County,PA,15237,,,POOL (CONDO OUTDOOR),2022-07-08T12:30:00,2022-07-13T13:30:00,INITIAL INSPECTION,t,1,NOBBS SCOTT,2.2,,0,,,,7,,,55,t,t,f,t,f,t,7/11/2023
127425,200468,2370,GREENTREE / WILSON PARK POOL,825 POPLAR STREET,,Green Tree,PITTSBURGH,Allegheny County,PA,15220,40.41866469,-80.05012334,POOLS (OUTDOOR),2022-07-08T12:00:00,2022-07-13T12:30:00,INITIAL INSPECTION,f,1,MANOWN MARYANN,2,2.5,0,0,,,7.4,7.4,,875,t,t,t,t,t,t,7/14/2022
127427,200473,669,DAYS INN - BANKSVILLE POOL,1150 BANKSVILLE ROAD,,Pittsburgh,PITTSBURGH,Allegheny County,PA,15216,40.41920306,-80.03026905,POOLS (OUTDOOR),2022-07-12T10:10:00,2022-07-13T10:30:00,FOLLOW UP INSPECTION,t,2,MANOWN MARYANN,,,,,,,7.4,,,,t,t,f,t,f,t,9/1/2022
127429,200489,2470,HIDDEN VALLEY POOL,2774 BINGHAM DRIVE,,Upper St Clair Township,PITTSBURGH,Allegheny County,PA,15241,40.31263041,-80.10799119,POOL (CONDO OUTDOOR),2022-07-13T15:20:00,2022-07-14T15:35:00,INITIAL INSPECTION,t,1,WOLFE CURRIER,1.4,,0,,,,7.4,,<30,,t,t,f,t,t,t,6/21/2023
127430,200493,2488,WOODLAND HILLS CLUB WADING POOL,2799 BINGHAM DRIVE,,Upper St Clair Township,PITTSBURGH,Allegheny County,PA,15241,40.31280162,-80.10647077,WADING POOL SYSTEM,2022-07-13T15:00:00,2022-07-14T15:05:00,INITIAL INSPECTION,t,1,WOLFE CURRIER,3,,0,,,,7.4,,<30,,t,t,t,t,t,t,
127431,200532,2448,MANORVIEW APTS POOL,101 MANORVIEW ROAD,,Scott Township,PITTSBURGH,Allegheny County,PA,15220,40.3944965,-80.06504338,POOLS (OUTDOOR),2022-07-14T14:05:00,2022-07-15T14:25:00,INITIAL INSPECTION,t,1,WOLFE CURRIER,3.4,,0,,,,7.4,,<30,115,t,t,f,t,t,t,8/23/2022
127433,200590,2430,PENNSBURY VILLAGE CONDO POOL,1039 PENNSBURY BOULEVARD,,Pennsbury Village,PITTSBURGH,Allegheny County,PA,15205,40.42862879,-80.09973829,POOL (CONDO OUTDOOR),2022-07-15T15:40:00,2022-07-18T16:10:00,INITIAL INSPECTION,t,1,MANOWN MARYANN,2,2,0,0,,,7.6,7.6,<30,300,t,t,f,t,t,t,7/21/2022
127434,200594,317,HOLIDAY INN EXPRESS PITTSBURGH AIRPORT / POOL,5311 CAMPBELLS RUN ROAD,,Robinson Township,PITTSBURGH,Allegheny County,PA,15205,40.44325817,-80.15989771,POOLS (OUTDOOR),2022-07-15T11:35:00,2022-07-18T12:25:00,INITIAL INSPECTION,t,1,MANOWN MARYANN,6.5,,0,,,,7.4,,40,,t,t,t,t,t,t,7/20/2022
127438,200657,6001,SUMMER SEAT HOA SPA ,105 GATEWAY DRIVE,,Ohio Township,PITTSBURGH,Allegheny County,PA,15237,40.53702487,-80.09542091,SPA/HOT TUB (OUTDOOR),2022-07-20T09:25:00,2022-07-21T09:35:00,INITIAL INSPECTION,f,1,NOBBS SCOTT,5,,0.2,,,,7.4,,<30,70,t,t,t,t,t,t,8/3/2022
127439,200666,2513,SULLIVAN MEMORIAL OUTDOOR POOL,517 TWIN OAK DRIVE,,Penn Hills,PITTSBURGH,Allegheny County,PA,15235,40.47898714,-79.7904494,POOLS (OUTDOOR),2022-07-20T13:50:00,2022-07-21T14:20:00,INITIAL INSPECTION,t,1,WILSON ANGELA,1.2,1,0,0,,,7.4,7.4,<30,,t,t,t,t,t,t,8/5/2022
127440,200667,2133,ALCOMA ON THE GREEN POOL,225 ALCOMA BOULEVARD,#114,Penn Hills,PITTSBURGH,Allegheny County,PA,15235,40.48537735,-79.80116317,POOLS (OUTDOOR),2022-07-20T14:30:00,2022-07-21T15:10:00,FOLLOW UP INSPECTION,t,2,WILSON ANGELA,3.4,,0,,,,7.6,,30,100,t,t,f,t,t,t,8/18/2022
127441,200688,2452,BOWER HILL SWIM CLUB - WADING POOL,1600 BOWER HILL ROAD,,Scott Township,PITTSBURGH,Allegheny County,PA,15243,40.37210836,-80.08070362,WADING POOL SYSTEM,2022-07-21T14:50:00,2022-07-22T13:00:00,INITIAL INSPECTION,t,1,WOLFE CURRIER,2.4,,0,,,,7.6,,<30,90,t,t,f,t,t,t,8/12/2022
127448,200224,2007,MAGEE POOL/CITY OF PITTSBURGH,745 GREENFIELD AVENUE,,Pittsburgh,PITTSBURGH,Allegheny County,PA,15217,,,POOLS (OUTDOOR),2022-06-29T13:45:00,2022-06-30T14:45:00,INITIAL INSPECTION,t,1,TIJANI ISSA,1,1,0,0,,,7.4,7.4,40,1900,t,t,t,t,t,t,6/30/2022
127450,200267,2362,CRAFTON BOROUGH POOL,117 W STEUBEN STREET,,Crafton,PITTSBURGH,Allegheny County,PA,15205,40.43820874,-80.0729088,POOLS (OUTDOOR),2022-06-27T15:05:00,2022-07-01T15:30:00,FOLLOW UP INSPECTION,t,2,MANOWN MARYANN,5,4,0,0,,,7.6,7.6,0,,t,t,f,t,t,t,8/22/2022
127453,200340,2517,GRANDVIEW POINTE APTS POOL,1411 GRANDVIEW AVENUE,,Pittsburgh,PITTSBURGH,Allegheny County,PA,15211,40.43848893,-80.02133562,POOLS (OUTDOOR),2022-07-06T14:40:00,2022-07-07T15:15:00,FOLLOW UP INSPECTION,t,2,MANOWN MARYANN,6.5,,0,,,,7,,50,50,t,t,f,t,f,t,9/9/2022
127454,200350,772,BELLEVUE MEMORIAL WADING POOL,320 BELLEVUE ROAD,,Ross Township,PITTSBURGH,Allegheny County,PA,15202,,,WADING POOL SYSTEM,2022-07-07T13:35:00,2022-07-08T13:55:00,INITIAL INSPECTION,t,1,NOBBS SCOTT,1.2,,0,,,,7.2,,,80,t,t,t,t,t,t,7/14/2022
127455,200353,10518,FRANKLIN RIDGE ESTATES CSA POOL,1624 COUNTRY CLUB DRIVE,,Franklin Park,Pittsburgh,Allegheny County,PA,15237,40.56377426,-80.08273891,POOL (CONDO OUTDOOR),2022-07-07T14:30:00,2022-07-08T14:40:00,FOLLOW UP INSPECTION,t,2,NOBBS SCOTT,1.4,1,,,,,,,,,t,t,t,t,t,t,7/14/2022
127456,200400,1510,CITY VISTA APARTMENTS - POOL,325 ELIZABETH DRIVE,,Green Tree,PITTSBURGH,Allegheny County,PA,15220,40.42703353,-80.03623483,POOLS (OUTDOOR),2022-07-07T15:30:00,2022-07-11T16:05:00,FOLLOW UP INSPECTION,t,3,MANOWN MARYANN,2,,0,,,,7.4,,<30,70,t,t,t,t,t,t,9/9/2022
127457,200748,2298,CHARLEMAGNE II POOL,4000 CHARLEMAGNE CIRCLE,,Ross Township,PITTSBURGH,Allegheny County,PA,15237,,,POOL (CONDO OUTDOOR),2022-07-13T12:43:00,2022-07-26T12:53:00,INITIAL INSPECTION,f,1,NOBBS SCOTT,,,,,,,,,,,t,t,t,t,t,t,8/10/2022
127458,200762,448,ST CLAIR COUNTRY CLUB WADING POOL,2300 OLD WASHINGTON ROAD,,Upper St Clair Township,PITTSBURGH,Allegheny County,PA,15241,40.33138823,-80.07802882,WADING POOL SYSTEM,2022-07-26T14:30:00,2022-07-27T14:45:00,INITIAL INSPECTION,t,1,WOLFE CURRIER,4.6,,0,,,,7.2,,<30,80,t,t,t,t,t,t,8/10/2022
127460,200793,1306,SAMPSON YMCA SPECIAL PURPOSE POOL,2200 GOLDEN MILE  HIGHWAY,Rt#286,Plum,PITTSBURGH,Allegheny County,PA,15239,40.45807353,-79.7076382,POOLS (OUTDOOR),2022-07-26T12:01:00,2022-07-27T12:45:00,FOLLOW UP INSPECTION,t,2,WILSON ANGELA,2.2,,0,,,,7.6,,<30,,t,t,f,t,f,t,8/26/2022
127461,200797,2032,HYLAND HILLS POOL,275 OAKVILLE DRIVE,,Pittsburgh,PITTSBURGH,Allegheny County,PA,15220,40.41885705,-80.03865286,POOLS (OUTDOOR),2022-07-26T14:35:00,2022-07-27T15:05:00,FOLLOW UP INSPECTION,t,2,MANOWN MARYANN,1,1.5,0,0.2,,,7.4,7.4,30,260,t,t,f,t,t,t,9/2/2022
127462,200799,2033,CRANE VILLAGE APTS POOL,651 OAKLYN COURT,,Pittsburgh,PITTSBURGH,Allegheny County,PA,15220,40.41514057,-80.03415507,POOLS (OUTDOOR),2022-07-26T15:10:00,2022-07-27T15:45:00,INITIAL INSPECTION,t,1,MANOWN MARYANN,1,1,0,0,,,7.4,7.6,<30,,t,t,f,t,t,t,
127464,200807,2045,STACK(JACK)POOL/CITY OF PITTSBURGH,600 BRIGHTON WOOD ROAD,,Pittsburgh,PITTSBURGH,Allegheny County,PA,15212,40.48688922,-80.03063634,POOLS (OUTDOOR),2022-07-27T12:10:00,2022-07-28T12:30:00,FOLLOW UP INSPECTION,t,2,LAURIA D. ANTHONY,3,2.8,0,0,,,7.8,7.9,,820,t,t,f,t,t,t,8/1/2022
127465,200813,2213,FOX CHAPEL RACQUET CLUB POOL,355 HUNT ROAD,,Fox Chapel,PITTSBURGH,Allegheny County,PA,15238,40.51077363,-79.89246248,POOLS (OUTDOOR),2022-07-27T11:30:00,2022-07-28T13:30:00,FOLLOW UP INSPECTION,t,2,FREEMAN MICHELE,2.4,2.4,0.2,0.2,0,0,7.2,7.2,<50,450,t,t,f,t,t,t,8/9/2023
127466,200815,2216,PITTSBURGH FIELD CLUB - WADING POOL,121 FIELD CLUB ROAD,,Fox Chapel,PITTSBURGH,Allegheny County,PA,15238,40.51312114,-79.88989824,WADING POOL SYSTEM,2022-07-27T14:00:00,2022-07-28T15:30:00,FOLLOW UP INSPECTION,t,2,FREEMAN MICHELE,0,,0,,0,0,7,,<50,,t,t,t,t,t,f,
127467,200816,2215,PITTSBURGH FIELD CLUB - POOL,121 FIELD CLUB ROAD,,Fox Chapel,PITTSBURGH,Allegheny County,PA,15238,40.51312114,-79.88989824,POOLS (OUTDOOR),2022-07-27T14:00:00,2022-07-28T15:30:00,INITIAL INSPECTION,t,1,FREEMAN MICHELE,2.2,2.2,0,0,0,0,7.4,7.4,<50,750,t,t,t,t,t,t,
127469,200496,7041,TOWN PLACE APARTMENTS SPA,424 STANWIX STREET,,Pittsburgh,PITTSBURGH,Allegheny County,PA,15222,40.4408757,-80.00399704,SPA/HOT TUB (OUTDOOR),2022-07-12T10:30:00,2022-07-14T10:45:00,INITIAL INSPECTION,f,1,MURPHY COLLEEN,,,,,,,,,,,t,t,t,t,t,t,7/12/2022
127470,200504,850,SUMMERSET COMMUNITY POOL,1425 PARKVIEW BOULEVARD,,Pittsburgh,PITTSBURGH,Allegheny County,PA,15217,40.41978366,-79.91613174,POOL (CONDO OUTDOOR),2022-07-08T03:15:00,2022-07-14T03:45:00,INITIAL INSPECTION,f,1,MURPHY COLLEEN,2.2,,0,,,,7.2,,,200,t,t,t,t,t,t,7/15/2022
127471,200533,469,THE VENUE POOL,625 STANWIX STREET,,Pittsburgh,PITTSBURGH,Allegheny County,PA,15222,40.44316988,-80.00484614,POOLS (OUTDOOR),2022-07-12T10:00:00,2022-07-15T10:30:00,INITIAL INSPECTION,f,1,MURPHY COLLEEN,4,,0,,,,7.2,,,40,t,t,t,t,t,t,7/15/2022
127474,200604,476,BLACKRIDGE SWIMMING CLUB WADING POOL, BEULAH ROAD,,Churchill,PITTSBURGH,Allegheny County,PA,15235,,,WADING POOL SYSTEM,2022-06-28T13:45:00,2022-07-19T14:00:00,INITIAL INSPECTION,f,1,MURPHY COLLEEN,2,,0,,,,7.2,,,10,t,t,t,t,t,t,8/8/2022
127476,200642,10979,THE VIEW NORTH HILLS POOL,1000 JOHNANNA DRIVE,,Ross Township,Pittsburgh,Allegheny County,PA,15237,40.54750291,-80.01407239,POOLS (OUTDOOR),2022-07-13T13:45:00,2022-07-20T14:45:00,INITIAL INSPECTION,t,1,NOBBS SCOTT,4.6,4.2,0,0,,,7.4,7.4,,120,t,t,f,t,t,t,8/22/2022
127477,200655,6002,SUMMER SEAT HOA POOL,105 GATEWAY DRIVE,,Ohio Township,PITTSBURGH,Allegheny County,PA,15237,40.53702487,-80.09542091,POOL (CONDO OUTDOOR),2022-07-20T09:00:00,2022-07-21T09:25:00,INITIAL INSPECTION,f,1,NOBBS SCOTT,2.2,,0,,,,7.4,,<30,230,t,t,t,t,t,t,8/3/2022
127479,200687,2451,BOWER HILL SWIM CLUB  - MAIN POOL,1600 BOWER HILL ROAD,,Scott Township,PITTSBURGH,Allegheny County,PA,15243,40.37210836,-80.08070362,POOLS (OUTDOOR),2022-07-21T14:20:00,2022-07-22T14:50:00,INITIAL INSPECTION,t,1,WOLFE CURRIER,2.6,2.6,0,0,,,7.4,7.6,<30,480,t,t,f,t,t,t,8/16/2022
127480,200689,2458,NOB HILL APARTMENTS,3000 SWALLOW HILL ROAD,,Scott Township,PITTSBURGH,Allegheny County,PA,15220,40.38894818,-80.075264,POOLS (OUTDOOR),2022-07-21T12:55:00,2022-07-22T13:15:00,INITIAL INSPECTION,t,1,WOLFE CURRIER,1.6,,0.2,,,,7.2,,33,65,t,t,f,t,t,t,7/31/2023
127482,200695,2316,CHATEAU PERRY POOL,951 PERRY HIGHWAY,,Ross Township,PITTSBURGH,Allegheny County,PA,15237,40.53591044,-80.03746051,POOLS (OUTDOOR),2022-07-21T14:15:00,2022-07-22T14:35:00,INITIAL INSPECTION,t,1,NOBBS SCOTT,1.6,1.8,0,0,,,7.4,7.4,<30,95,t,t,f,t,t,t,7/25/2022
127485,200727,8816,PENNWOOD SQUARE POOL,601 A HAY STREET,,Wilkinsburg,Pittsburgh,Allegheny County,PA,15221,40.44128531,-79.88774255,POOLS (OUTDOOR),2022-07-19T15:30:00,2022-07-25T16:30:00,INITIAL INSPECTION,f,1,MURPHY COLLEEN,3.2,,0,,,,7.4,,,110,t,t,t,t,t,t,8/5/2022
127488,200756,10577,THE DISTRICT - POOL,1759 Waterfront PLACE,,Pittsburgh,Pittsburgh,Allegheny County,PA,15222,40.45159947,-79.98735184,POOLS (OUTDOOR),2022-07-22T12:00:00,2022-07-26T12:30:00,INITIAL INSPECTION,f,1,MURPHY COLLEEN,5,,0,,,,7.8,,,90,t,t,t,t,t,t,8/4/2022
127489,200770,4141,TORRENTE APARTMENTS POOL,2565 BOYCE PLAZA  ROAD,,Upper St Clair Township,PITTSBURGH,Allegheny County,PA,15241,40.32251609,-80.11355233,POOLS (OUTDOOR),2022-07-26T15:05:00,2022-07-27T15:30:00,INITIAL INSPECTION,t,1,WOLFE CURRIER,0.6,,0.4,,,,7,,>100,65,t,t,f,t,f,t,6/7/2023
127490,200773,10737,CAMBRIA SUITES PGH @ PPG PAINTS ARENA POOL,1320 CENTRE  AVENUE,,Pittsburgh,Pittsburgh,Allegheny County,PA,15219,40.44009334,-79.98798104,POOLS (INDOOR),2022-07-25T15:00:00,2022-07-27T15:25:00,FOLLOW UP INSPECTION,t,2,ANDERSON IAN,,,,,,,,,,,t,t,f,t,t,t,9/14/2023
127491,200776,8896,BEAR RUN VILLAGE LIMITED PARTNERSHIP POOL,100 BEAR RUN DRIVE,,Ohio Township,Pittsburgh,Allegheny County,PA,15237,40.54902623,-80.08057653,POOLS (OUTDOOR),2022-07-26T13:45:00,2022-07-27T14:20:00,INITIAL INSPECTION,t,1,NOBBS SCOTT,3.2,,0,,,,7.4,,,130,t,t,f,t,t,t,8/10/2022
127492,200790,3906,SAMPSON FAMILY YMCA MAIN POOL,2200 GOLDEN MILE HIGHWAY,,Plum,PITTSBURGH,Allegheny County,PA,15239,40.45807353,-79.7076382,POOLS (INDOOR),2022-07-26T11:00:00,2022-07-27T11:30:00,INITIAL INSPECTION,t,1,WILSON ANGELA,2.8,2.6,0.4,0.2,,,7.2,7,,400,t,t,f,t,t,t,9/26/2022
127497,200828,2019,REAM POOL/CITY OF PITTSBURGH,321 MERRIMAC STREET,,Pittsburgh,PITTSBURGH,Allegheny County,PA,15211,40.43084703,-80.01313567,POOLS (OUTDOOR),2022-07-28T14:30:00,2022-07-29T15:00:00,FOLLOW UP INSPECTION,t,2,MANOWN MARYANN,1,1.5,0,0,,,7.2,7.2,0,700,t,t,t,t,f,t,7/29/2022
127500,200862,1980,BLOOMFIELD POOL / CITY OF PITTSBURGH,401 ELLA STREET,,Pittsburgh,PITTSBURGH,Allegheny County,PA,15224,40.46187762,-79.9528585,POOLS (OUTDOOR),2022-07-29T14:00:00,2022-08-02T13:00:00,INITIAL INSPECTION,t,1,ANDERSON IAN,2.6,2.8,0,0,,,7.2,7.2,,3200,t,t,t,t,t,t,8/10/2022
127502,200903,8776,BRACKEN HOUSE NORTH SHORE POOL,100 ANDERSON STREET,,PITTSBURGH,Pittsburgh,Allegheny County,PA,15212,40.44863837,-79.99936184,POOLS (OUTDOOR),2022-08-03T15:20:00,2022-08-04T15:40:00,FOLLOW UP INSPECTION,t,2,NOBBS SCOTT,,,,,,,,,,,t,t,f,t,t,t,8/12/2022
127505,200421,9737,CITY VIEW APARTMENTS POOL,1420 CENTRE AVENUE,,Pittsburgh,Pittsburgh,Allegheny County,PA,15219,40.4404243,-79.98643315,POOLS (OUTDOOR),2022-07-12T12:05:00,2022-07-12T12:40:00,INITIAL INSPECTION,t,1,ANDERSON IAN,4.4,,0,,,,7.4,,,225,t,t,f,t,t,t,7/14/2022
127509,200467,8936,PARK WEST 205 APARTMENT POOL,1000 PARK WEST PLACE,,Robinson Township,Pittsburgh,Allegheny County,PA,15205,40.4331489,-80.14266355,POOLS (OUTDOOR),2022-07-08T13:20:00,2022-07-13T14:00:00,FOLLOW UP INSPECTION,t,2,MANOWN MARYANN,4,,0.2,,,,7.4,,70,45,t,t,f,t,t,t,6/22/2023
127511,200495,2315,MEWS POOL,710 BROWNS LANE,,Ross Township,PITTSBURGH,Allegheny County,PA,15237,40.5459084,-80.02094927,POOL (CONDO OUTDOOR),2022-07-13T14:30:00,2022-07-14T15:30:00,INITIAL INSPECTION,f,1,NOBBS SCOTT,1,1,0,0,,,7.2,7.2,,275,t,t,t,t,t,t,7/14/2022
127512,200530,750,GREENBRIER VILLAGE APARTMENTS POOL,1701 GREENVALLEY DRIVE,,Scott Township,PITTSBURGH,Allegheny County,PA,15220,40.3980219,-80.06187723,POOLS (OUTDOOR),2022-07-14T13:20:00,2022-07-15T13:45:00,INITIAL INSPECTION,t,1,WOLFE CURRIER,3.6,,0,,,,7.4,,,65,t,t,f,t,t,t,8/25/2023
127514,200573,9717,KAUFMANNS GRAND ON 5TH POOL,434 5TH AVENUE,,Pittsburgh,Pittsburgh,Allegheny County,PA,15219,40.43970233,-79.99807596,POOLS (OUTDOOR),2022-07-12T11:00:00,2022-07-18T11:45:00,INITIAL INSPECTION,t,1,MURPHY COLLEEN,2,,0,,,,7.3,,,20,t,t,f,t,t,t,7/18/2022
127526,201146,2481,MAIDENBRIDGE & CANONGATE COMMUNITY POOL,100 WHITE HAMPTON LANE,,Whitehall,PITTSBURGH,Allegheny County,PA,15236,40.3641475,-79.99831864,POOLS (OUTDOOR),2022-08-17T14:00:00,2022-08-17T14:15:00,FOLLOW UP INSPECTION,t,3,CONLEY FAON,,,,,,,,,,,t,t,t,t,t,t,8/17/2022
127530,200829,2031,BANKSVILLE POOL / CITY OF PITTSBURGH,1461 CRANE AVENUE,,Pittsburgh,PITTSBURGH,Allegheny County,PA,15220,40.4147718,-80.04016006,POOLS (OUTDOOR),2022-07-28T15:30:00,2022-07-29T15:35:00,INITIAL INSPECTION,t,1,MANOWN MARYANN,,,,,,,,,,,t,t,t,t,t,t,8/29/2022
127532,200852,1133,CROWNE PLAZA - PITTSBURGH SOUTH POOL,164 FORT COUCH ROAD,,Bethel Park,PITTSBURGH,Allegheny County,PA,15241,40.34589273,-80.05262047,POOLS (OUTDOOR),2022-08-29T12:45:00,2022-08-01T13:45:00,INITIAL INSPECTION,f,1,CONLEY FAON,3.4,3.4,0,0,0,0,7.2,7.2,,70,t,t,t,t,t,t,8/2/2022
127535,200909,5427,CROSSROAD TOWERS POOL,200 SOPHIA  DRIVE,,Baldwin,PITTSBURGH,Allegheny County,PA,15236,40.34191781,-79.96917624,POOLS (OUTDOOR),2022-08-04T11:00:00,2022-08-04T12:15:00,INITIAL INSPECTION,f,1,CONLEY FAON,2,2,0,0,,,7.6,7.6,,100,t,t,t,t,t,t,8/5/2022
127538,200948,9717,KAUFMANNS GRAND ON 5TH POOL,434 5TH AVENUE,,Pittsburgh,Pittsburgh,Allegheny County,PA,15219,40.43970233,-79.99807596,POOLS (OUTDOOR),2022-08-01T09:30:00,2022-08-08T10:00:00,INITIAL INSPECTION,f,1,MURPHY COLLEEN,,,,,,,,,,,t,t,t,t,t,t,8/1/2022
127541,200805,1414,HYATT PLACE POOL,260 N SHORE DRIVE,,Pittsburgh,PITTSBURGH,Allegheny County,PA,15212,40.44665593,-80.00914723,POOLS (INDOOR),2022-07-27T14:00:00,2022-07-28T14:30:00,FOLLOW UP INSPECTION,t,4,NOBBS SCOTT,,,,,,,,,,,t,t,f,t,t,t,8/18/2022
127542,200814,49,FOX CHAPEL RACQUET CLUB WADING POOL,355 HUNT ROAD,,Fox Chapel,PITTSBURGH,Allegheny County,PA,15238,40.51077363,-79.89246248,WADING POOL SYSTEM,2022-07-27T11:30:00,2022-07-28T13:30:00,FOLLOW UP INSPECTION,t,3,FREEMAN MICHELE,4.8,,0.2,,0,0,7.6,,<50,80,t,t,f,t,t,t,8/9/2023
127543,200843,4141,TORRENTE APARTMENTS POOL,2565 BOYCE PLAZA  ROAD,,Upper St Clair Township,PITTSBURGH,Allegheny County,PA,15241,40.32251609,-80.11355233,POOLS (OUTDOOR),2022-07-29T14:10:00,2022-08-01T14:25:00,FOLLOW UP INSPECTION,t,2,WOLFE CURRIER,4.2,,0.2,,,,7.4,,>100,,t,t,f,t,f,t,6/7/2023
127544,200847,2481,MAIDENBRIDGE & CANONGATE COMMUNITY POOL,100 WHITE HAMPTON LANE,,Whitehall,PITTSBURGH,Allegheny County,PA,15236,40.3641475,-79.99831864,POOLS (OUTDOOR),2022-07-29T09:30:00,2022-08-01T10:30:00,FOLLOW UP INSPECTION,t,2,CONLEY FAON,4.8,4.8,0,0,0,0,7.4,7.4,,168,t,t,f,t,t,t,8/17/2022
127546,200874,4241,CAMP GUYASUTA SPRAY PAD,300 23RD STREET  EX EXTENSION,,O'Hara Township,PITTSBURGH,Allegheny County,PA,15238,,,WADING POOL SYSTEM,2022-08-01T13:00:00,2022-08-02T15:00:00,INITIAL INSPECTION,t,1,FREEMAN MICHELE,18,,0.6,,0,0,8,,<50,120,t,t,t,t,f,f,8/9/2023
127547,200875,2275,CAMP GUYASUTA POOL,300 23RD STREET EX EXTENSION,,O'Hara Township,PITTSBURGH,Allegheny County,PA,15238,,,POOLS (OUTDOOR),2022-08-01T13:00:00,2022-08-02T15:00:00,INITIAL INSPECTION,t,1,FREEMAN MICHELE,5.8,5,0.6,0.6,0,0,8,8,<50,400,t,t,t,t,f,t,8/9/2023
127548,200878,2216,PITTSBURGH FIELD CLUB - WADING POOL,121 FIELD CLUB ROAD,,Fox Chapel,PITTSBURGH,Allegheny County,PA,15238,40.51312114,-79.88989824,WADING POOL SYSTEM,2022-08-01T09:00:00,2022-08-02T09:30:00,FOLLOW UP INSPECTION,t,3,FREEMAN MICHELE,6.2,,0.2,,0,0,7.8,,<50,60,t,t,t,t,t,f,
127551,201016,1412,SKYBAR PITTSBURGH - POOL,1601 E CARSON STREET,,Pittsburgh,PITTSBURGH,Allegheny County,PA,15203,40.42901773,-79.98254896,POOLS (OUTDOOR),2022-08-11T13:00:00,2022-08-11T14:00:00,INITIAL INSPECTION,t,1,CONLEY FAON,4.2,,0,0,0,0,7.4,,,20,t,t,f,t,t,t,
127552,201033,11060,TRELLIS NORTH FAYETTE POOL,1500 PARK LANE DRIVE,,North Fayette Township,Pittsburgh,Allegheny County,PA,15275,40.4560042,-80.18869791,POOLS (OUTDOOR),2022-08-02T11:30:00,2022-08-12T11:45:00,INITIAL INSPECTION,t,1,MANOWN MARYANN,2.5,,0.2,,,,7.4,,0,55,t,t,f,t,t,t,7/17/2023
127558,201077,10777,HAMPTON INN GREENTREE POOL,555 TRUMBULL DRIVE,,Green Tree,Pittsburgh,Allegheny County,PA,15205,40.41934038,-80.05382287,POOLS (OUTDOOR),2022-08-11T10:35:00,2022-08-15T11:05:00,INITIAL INSPECTION,t,1,MANOWN MARYANN,4,,0,,,,7.4,,55,,t,t,f,t,t,t,2/23/2024
127559,201078,2020,MOORE POOL/CITY OF PITTSBURGH,1801 PIONEER AVENUE,,Pittsburgh,PITTSBURGH,Allegheny County,PA,15226,40.40554986,-80.01393522,POOLS (OUTDOOR),2022-08-11T12:50:00,2022-08-15T13:25:00,FOLLOW UP INSPECTION,t,3,MANOWN MARYANN,1.5,1.5,0,0,,,7.4,7.4,45,1250,t,t,t,t,t,t,8/15/2022
127562,201136,2023,TRIMONT RESIDENTIAL CONDOS POOL,1 TRIMONT LANE,,Pittsburgh,PITTSBURGH,Allegheny County,PA,15211,40.43822854,-80.02018731,POOL (CONDO OUTDOOR),2022-08-11T13:45:00,2022-08-16T14:00:00,FOLLOW UP INSPECTION,t,4,MANOWN MARYANN,,,,,,,,,,,t,t,f,t,t,t,8/29/2022
127563,200577,9717,KAUFMANNS GRAND ON 5TH POOL,434 5TH AVENUE,,Pittsburgh,Pittsburgh,Allegheny County,PA,15219,40.43970233,-79.99807596,POOLS (OUTDOOR),2022-07-12T11:00:00,2022-07-18T11:30:00,FOLLOW UP INSPECTION,t,2,MURPHY COLLEEN,2,,0,,,,7.3,,,20,t,t,f,t,t,t,7/18/2022
127564,200579,2013,ORMSBY POOL / CITY OF PITTSBURGH,79 S 22ND STREET,,Pittsburgh,PITTSBURGH,Allegheny County,PA,15203,40.42913706,-79.97434189,POOLS (OUTDOOR),2022-07-15T14:05:00,2022-07-18T14:40:00,INITIAL INSPECTION,f,1,WOLFE CURRIER,1.2,1.8,0,0,,,7.4,7.4,<30,650,t,t,t,t,t,t,7/25/2022
127570,200614,1089,BOYCE MAYVIEW COMMUNITY REC CENTER - OUTDOOR POOL,1551 MAYVIEW ROAD,,Upper St Clair Township,PITTSBURGH,Allegheny County,PA,15241,40.33388993,-80.1126323,POOLS (OUTDOOR),2022-07-19T10:35:00,2022-07-19T11:11:00,INITIAL INSPECTION,t,1,WOLFE CURRIER,5,,0.2,,,,7.4,,42,1000,t,t,t,t,t,t,7/25/2022
127573,200634,1949,CRAWFORD SQUARE / POOL,510 PROTECTORY PLACE,,Pittsburgh,PITTSBURGH,Allegheny County,PA,15219,40.44209029,-79.98516633,POOLS (OUTDOOR),2022-07-11T11:15:00,2022-07-20T12:00:00,FOLLOW UP INSPECTION,t,2,ANDERSON IAN,2.4,,0,,,,7.8,,,70,t,t,f,t,t,t,7/25/2022
127574,200641,2043,FOWLER POOL,2438 WILSON AVENUE,,Pittsburgh,PITTSBURGH,Allegheny County,PA,15214,40.46885739,-80.01371022,POOLS (OUTDOOR),2022-07-19T09:45:00,2022-07-20T09:55:00,FOLLOW UP INSPECTION,t,5,NOBBS SCOTT,,,,,,,,,,,t,t,f,t,t,t,
127575,201147,2517,GRANDVIEW POINTE APTS POOL,1411 GRANDVIEW AVENUE,,Pittsburgh,PITTSBURGH,Allegheny County,PA,15211,40.43848893,-80.02133562,POOLS (OUTDOOR),2022-08-11T11:25:00,2022-08-17T12:00:00,FOLLOW UP INSPECTION,t,3,MANOWN MARYANN,3.5,,,,,,7,,,,t,t,t,t,f,t,9/9/2022
127576,201180,5426,CRAFTON BOROUGH SPLASH POOL,117 W STEUBENVILLE  STREET,,Crafton,PITTSBURGH,Allegheny County,PA,15205,40.39898926,-79.90386763,WADING POOL SYSTEM,2022-08-18T16:15:00,2022-08-19T16:16:00,FOLLOW UP INSPECTION,t,3,MANOWN MARYANN,,,,,,,,,,,t,t,t,t,t,t,10/25/2022
127578,201218,2448,MANORVIEW APTS POOL,101 MANORVIEW ROAD,,Scott Township,PITTSBURGH,Allegheny County,PA,15220,40.3944965,-80.06504338,POOLS (OUTDOOR),2022-08-18T15:10:00,2022-08-22T15:30:00,FOLLOW UP INSPECTION,t,2,ANDERSON IAN,,,,,,,,,,,t,t,f,t,t,t,8/23/2022
127579,201261,5982,NINETEEN NORTH APARTMENT POOL,1050 19TH NORTH DRIVE,,McCandless,PITTSBURGH,Allegheny County,PA,15237,40.56650574,-80.04156585,POOLS (OUTDOOR),2022-08-23T15:10:00,2022-08-24T15:30:00,FOLLOW UP INSPECTION,t,2,NOBBS SCOTT,,,,,,,,,,,t,t,t,t,t,t,8/25/2022
127580,201293,10879,NEWPORT SQUARE POOL,520 NEWPORT DRIVE,,Penn Hills,Pittsburgh,Allegheny County,PA,15235,40.45577779,-79.82964192,POOL (CONDO OUTDOOR),2022-08-25T15:00:00,2022-08-26T15:20:00,FOLLOW UP INSPECTION,t,2,WILSON ANGELA,,,,,,,7.4,,,,t,t,f,t,f,t,8/26/2022
127581,201297,1305,SAMPSON YMCA OUTDOOR POOL,2200 GOLDEN MILE  HIGHWAY,Rt#286,Plum,PITTSBURGH,Allegheny County,PA,15239,40.45807353,-79.7076382,POOLS (OUTDOOR),2022-08-24T14:10:00,2022-08-26T14:19:00,FOLLOW UP INSPECTION,t,2,WILSON ANGELA,,,,,,,,,,,t,t,f,t,t,t,8/26/2022
127582,201309,2031,BANKSVILLE POOL / CITY OF PITTSBURGH,1461 CRANE AVENUE,,Pittsburgh,PITTSBURGH,Allegheny County,PA,15220,40.4147718,-80.04016006,POOLS (OUTDOOR),2022-08-22T10:50:00,2022-08-26T10:55:00,FOLLOW UP INSPECTION,t,2,MANOWN MARYANN,,,,,,,,,,,t,t,t,t,t,t,8/29/2022
127583,201329,9958,ONE ON CENTRE APARTMENTS SPA,4500 CENTRE AVENUE,,Pittsburgh,Pittsburgh,Allegheny County,PA,15213,40.45139849,-79.95304405,SPA/HOT TUB (OUTDOOR),2022-08-26T13:46:00,2022-08-29T14:00:00,FOLLOW UP INSPECTION,t,2,WILSON ANGELA,,,,,,,,,,,t,t,f,t,t,t,7/28/2023
127584,201347,2210,HOLY FAMILY INSTITUTE-RESIDENTIAL STUDENTS POOL,8235 OHIO RIVER BOULEVARD,,Emsworth,PITTSBURGH,Allegheny County,PA,15202,40.51057216,-80.09954063,POOLS (SCHOOLS),2022-08-29T11:30:00,2022-08-30T12:30:00,FOLLOW UP INSPECTION,t,2,LAURIA D. ANTHONY,2.8,2.8,0,0,,,7.8,7.9,,150,t,t,f,t,t,t,8/31/2022
127585,201349,1007,LA FITNESS PLEASANT HILLS POOL,601 CLAIRTON BOULEVARD,,Pleasant Hills,PITTSBURGH,Allegheny County,PA,15236,40.33221382,-79.94402761,POOLS (INDOOR),2022-08-29T11:30:00,2022-08-30T12:00:00,INITIAL INSPECTION,f,1,CONLEY FAON,4,4,0,0,,,7.2,7.2,,325,t,t,t,t,t,t,8/31/2022
127591,201491,5781,MORROW PARK CITY APARTMENTS POOL,5250 LIBERTY  AVENUE,,Pittsburgh,PITTSBURGH,Allegheny County,PA,15224,40.4567333,-79.9402353,POOLS (INDOOR),2022-09-08T11:40:00,2022-09-08T11:50:00,INITIAL INSPECTION,t,1,WOLFE CURRIER,1.6,,0.2,,,,7.4,,,150,t,t,f,t,t,t,
127592,201492,8376,MORROW PARK CITY APARTMENTS SPA,5250 LIBERTY AVENUE,,Pittsburgh,Pittsburgh,Allegheny County,PA,15224,40.4567333,-79.9402353,SPA/HOT TUB (INDOOR),2022-09-08T11:20:00,2022-09-08T11:40:00,INITIAL INSPECTION,t,1,WOLFE CURRIER,2.6,,2,,,,7.2,,,38,t,t,f,t,t,t,
127594,201554,289,1000 GRANDVIEW AVE POOL,1000 GRANDVIEW AVENUE,,Pittsburgh,PITTSBURGH,Allegheny County,PA,15211,40.43712212,-80.01657079,POOL (CONDO OUTDOOR),2022-09-09T10:00:00,2022-09-13T10:30:00,FOLLOW UP INSPECTION,t,3,MANOWN MARYANN,,,,,,,,,65,,t,t,f,t,t,t,8/4/2023
127596,201658,1943,RIVERS CLUB / INDOOR POOL,301 GRANT STREET,Ste 411,Pittsburgh,PITTSBURGH,Allegheny County,PA,15219,40.43800708,-79.99861019,POOLS (INDOOR),2022-09-07T11:30:00,2022-09-20T11:45:00,INITIAL INSPECTION,f,1,MURPHY COLLEEN,1,,0,,,,7.4,,,110,t,t,t,t,t,t,9/7/2022
127597,201709,1944,RIVERS CLUB MEN'S SPA,301 GRANT STREET, #411,Pittsburgh,PITTSBURGH,Allegheny County,PA,15219,40.43800708,-79.99861019,SPA/HOT TUB (INDOOR),2022-09-20T12:30:00,2022-09-23T12:45:00,INITIAL INSPECTION,t,1,MURPHY COLLEEN,,,,,2,,7.2,,,30,t,t,t,t,t,t,10/21/2022
127598,201807,679,KINGSLEY COMMUNITY CENTER POOL,6435 FRANKSTOWN  AVENUE,,Pittsburgh,PITTSBURGH,Allegheny County,PA,15206,40.46146029,-79.91539965,POOLS (INDOOR),2022-09-28T14:30:00,2022-09-29T14:35:00,INITIAL INSPECTION,f,1,WILSON ANGELA,,,,,,,,,,,t,t,t,t,t,t,9/29/2022
127602,200970,1432,BRECKENRIDGE COMMUNITY POOL,1820 MICHAEL  DRIVE,,Baldwin,PITTSBURGH,Allegheny County,PA,15227,,,POOL (CONDO OUTDOOR),2022-08-08T11:30:00,2022-08-09T12:30:00,INITIAL INSPECTION,t,1,CONLEY FAON,5,5,0,0,0,0,7.4,7.4,,,t,t,t,t,t,t,8/9/2022
127606,201079,1510,CITY VISTA APARTMENTS - POOL,325 ELIZABETH DRIVE,,Green Tree,PITTSBURGH,Allegheny County,PA,15220,40.42703353,-80.03623483,POOLS (OUTDOOR),2022-08-11T14:25:00,2022-08-15T14:40:00,FOLLOW UP INSPECTION,t,4,MANOWN MARYANN,,,,,,,,,,,t,t,t,t,t,t,9/9/2022
127607,201108,1013,FAIRFIELD INN NEVILLE POOL,5850 GRAND AVENUE,,Neville Township,PITTSBURGH,Allegheny County,PA,15225,40.5137302,-80.13321022,POOLS (INDOOR),2022-08-15T14:30:00,2022-08-16T15:30:00,INITIAL INSPECTION,t,1,LAURIA D. ANTHONY,3,3,0,0,,,7.6,7.6,0,50,t,t,t,t,t,t,8/29/2022
127609,201130,2308,CASCADES POOL,100 E WEST DRIVE,,Ross Township,PITTSBURGH,Allegheny County,PA,15237,40.50658996,-80.02118139,POOLS (OUTDOOR),2022-08-15T14:50:00,2022-08-16T15:40:00,FOLLOW UP INSPECTION,t,2,NOBBS SCOTT,,,,,,,,,,117,t,t,f,t,t,t,8/18/2022
